,ID,REGION,SUBREGION,COUNTRY,LOCATION,LAT,LON,MONTH,YEAR,SEVERITY_CODE,BLEACHING_SEVERITY,SOURCE,COUNTRY_CODE
1759,2258,Americas,Northern Caribbean,Jamaica,Jamaica,18.2,-77.25,,1960s,-1,1,ReefBase,JAM
1882,2072,Americas,Southern Tropical America,Colombia,Providencia Island ( Isla de Providencia ),13.3583333333333,-81.3833333333333,,1960s,-1,1,ReefBase,COL
2276,2276,Americas,U.S. Caribbean,Puerto Rico,Puerto Rico,17.8666666666667,-66.4333333333333,,1960s,-1,1,ReefBase,PRI
2199,2361,Americas,U.S. Caribbean,Florida (USA),Middle Sambo Reef,24.49,-81.675,,1970s,2,1,ReefBase,USA_FLO
1980,1817,Americas,Southern Tropical America,Panama,Chiriqui Gulf ( Golfo de Chiriqui ),8.0,-82.3333333333333,,1970s,-1,1,ReefBase,PAN
1943,2037,Americas,Southern Tropical America,Ecuador,Galapagos Islands,-0.65,-90.3833333333333,3.0,1970s,-1,1,ReefBase,ECU
2928,2075,Asia,Southeast Asia,Thailand,Phuket Island,8.10416666666667,98.3028333333333,,1970s,-1,1,ReefBase,THA
2277,2277,Americas,U.S. Caribbean,Puerto Rico,Puerto Rico,17.8666666666667,-66.4333333333333,,1970s,-1,1,ReefBase,PRI
2933,2068,Asia,Southeast Asia,Thailand,Phuket Reefs,8.0,98.3333333333333,,1970s,-1,1,ReefBase,THA
291,2268,Americas,Eastern Caribbean,Virgin Islands (British),British Virgin Islands,18.5,-64.5,,1970s,-1,1,ReefBase,VBG
244,2124,Americas,Eastern Caribbean,Netherlands Antilles,Bonaire,12.1833333333333,-68.3,,1970s,2,1,ReefBase,ANT
290,2269,Americas,Eastern Caribbean,Virgin Islands (British),Anegada,18.7333333333333,-64.3166666666667,,1970s,1,1,ReefBase,VBG
3778,2383,Australia,Australia and Papua New Guinea,Torres Strait & Great Barrier Reef,Green Island Reef,-16.769,145.9912,,1980s,-1,1,GBRMPA  Historical Bleaching Database,AUS_GBR
3827,2388,Australia,Australia and Papua New Guinea,Torres Strait & Great Barrier Reef,Hastings Reef,-16.5212,146.0115,,1980s,-1,1,GBRMPA  Historical Bleaching Database,AUS_GBR
3503,2156,Australia,Australia and Papua New Guinea,Torres Strait & Great Barrier Reef,Decapolis Reef,-14.852,145.2718,,1980s,-1,1,GBRMPA  Historical Bleaching Database,AUS_GBR
3433,2442,Australia,Australia and Papua New Guinea,Torres Strait & Great Barrier Reef,Cockle Bay Reef,-19.1751,146.8138,,1980s,-1,1,GBRMPA  Historical Bleaching Database,AUS_GBR
1847,506,Americas,Southern Tropical America,Chile,Easter Island,-27.1,-109.3,6.0,1980s,2,1,"Wellington, G.M., Glynn, P.W., Strong, A.E., Navarrete, S.A., Wieters, E. and Hubbard, D. 2001. Crisis on Coral Reefs Linked to Climate Change. EOS. 82(1):1, 5",CHL
1849,2246,Americas,Southern Tropical America,Chile,Easter Island (Rapa-Nui),-27.1666666666667,-109.333333333333,6.0,1980s,3,1,ReefBase,CHL
4094,2441,Australia,Australia and Papua New Guinea,Torres Strait & Great Barrier Reef,Magnetic Island Reef F,-19.1118,146.861,,1980s,-1,1,GBRMPA  Historical Bleaching Database,AUS_GBR
4127,2392,Australia,Australia and Papua New Guinea,Torres Strait & Great Barrier Reef,Michaelmas Reef,-16.5841,146.0171,,1980s,-1,1,GBRMPA  Historical Bleaching Database,AUS_GBR
3338,2411,Australia,Australia and Papua New Guinea,Torres Strait & Great Barrier Reef,Britomart Reef,-18.23,146.7286,,1980s,-1,1,GBRMPA  Historical Bleaching Database,AUS_GBR
4873,2479,Australia,Australia and Papua New Guinea,Torres Strait & Great Barrier Reef,Turtle Island Reef,-22.3582,149.7747,,1980s,-1,1,GBRMPA  Historical Bleaching Database,AUS_GBR
2366,2241,Asia,North and East Asia,Japan,Okinawa Kaigan,26.3833333333333,128.0,,1980s,-1,1,ReefBase,JPN
2806,2024,Asia,Southeast Asia,Philippines,Alcoy,9.66666666666667,123.55,,1980s,1,1,ReefBase,PHL
2278,2278,Americas,U.S. Caribbean,Puerto Rico,Puerto Rico,17.8666666666667,-66.4333333333333,,1980s,1,1,ReefBase,PRI
4052,2153,Australia,Australia and Papua New Guinea,Torres Strait & Great Barrier Reef,Lizard Island NW Side Re,-14.6514,145.4485,,1980s,-1,1,GBRMPA  Historical Bleaching Database,AUS_GBR
4523,2427,Australia,Australia and Papua New Guinea,Torres Strait & Great Barrier Reef,Pandora Reef,-18.8138,146.4327,,1980s,-1,1,GBRMPA  Historical Bleaching Database,AUS_GBR
3491,2436,Australia,Australia and Papua New Guinea,Torres Strait & Great Barrier Reef,Davies Reef,-18.8239,147.6457,,1980s,-1,1,GBRMPA  Historical Bleaching Database,AUS_GBR
3434,2444,Australia,Australia and Papua New Guinea,Torres Strait & Great Barrier Reef,Cockle Bay Reef,-19.1751,146.8138,,1980s,-1,1,GBRMPA  Historical Bleaching Database,AUS_GBR
1909,791,Americas,Southern Tropical America,Costa Rica,Costa Rica - Caribbean,10.0,-82.5,,1980s,3,1,GCRMN 2000. Chapter 18,CRI
3504,2157,Australia,Australia and Papua New Guinea,Torres Strait & Great Barrier Reef,Decapolis Reef,-14.852,145.2718,,1980s,-1,1,GBRMPA  Historical Bleaching Database,AUS_GBR
1863,678,Americas,Southern Tropical America,Colombia,Colombia - Pacific,3.3,-78.0,,1980s,3,1,GCRMN 2000. Chapter 18,COL
3339,2412,Australia,Australia and Papua New Guinea,Torres Strait & Great Barrier Reef,Britomart Reef,-18.23,146.7286,,1980s,-1,1,GBRMPA  Historical Bleaching Database,AUS_GBR
1911,793,Americas,Southern Tropical America,Costa Rica,Costa Rica - Pacific,9.0,-85.0,,1980s,3,1,GCRMN 2000. Chapter 18,CRI
4171,2417,Australia,Australia and Papua New Guinea,Torres Strait & Great Barrier Reef,Myrmidon Reef,-18.2683,147.3862,,1980s,-1,1,GBRMPA  Historical Bleaching Database,AUS_GBR
4619,2415,Australia,Australia and Papua New Guinea,Torres Strait & Great Barrier Reef,Rib Reef,-18.4804,146.8729,,1980s,-1,1,GBRMPA  Historical Bleaching Database,AUS_GBR
4874,2480,Australia,Australia and Papua New Guinea,Torres Strait & Great Barrier Reef,Turtle Island Reef,-22.3582,149.7747,,1980s,-1,1,GBRMPA  Historical Bleaching Database,AUS_GBR
3533,2419,Australia,Australia and Papua New Guinea,Torres Strait & Great Barrier Reef,Dip Reef,-18.411,147.4531,,1980s,-1,1,GBRMPA  Historical Bleaching Database,AUS_GBR
4473,2450,Australia,Australia and Papua New Guinea,Torres Strait & Great Barrier Reef,Old Reef,-19.3854,148.0868,,1980s,-1,1,GBRMPA  Historical Bleaching Database,AUS_GBR
1907,687,Americas,Southern Tropical America,Costa Rica,Cocos Island,8.687,-87.0067,,1980s,3,1,"Jimenez, C., Cortes, J., Leon, A. and Ruiz, E. 2001. Coral Bleaching  and Mortality associated with the 1997-1998 El Nino in an upwelling environemnt in the Eastern Pacific (Gulf of Papagayo, Costa Rica). Bulletin of Marine Science. 69(1):151-169",CRI
3265,2439,Australia,Australia and Papua New Guinea,Torres Strait & Great Barrier Reef,Big Broadhurst Reef A,-18.9118,147.7439,,1980s,-1,1,GBRMPA  Historical Bleaching Database,AUS_GBR
4096,2443,Australia,Australia and Papua New Guinea,Torres Strait & Great Barrier Reef,Magnetic Island Reef F,-19.1118,146.861,,1980s,-1,1,GBRMPA  Historical Bleaching Database,AUS_GBR
3570,2431,Australia,Australia and Papua New Guinea,Torres Strait & Great Barrier Reef,Eclipse Island Reef,-18.7703,146.549,,1980s,-1,1,GBRMPA  Historical Bleaching Database,AUS_GBR
1902,686,Americas,Southern Tropical America,Costa Rica,Cano Island,8.7333,-83.8833,,1980s,3,1,"Jimenez, C., Cortes, J., Leon, A. and Ruiz, E. 2001. Coral Bleaching  and Mortality associated with the 1997-1998 El Nino in an upwelling environemnt in the Eastern Pacific (Gulf of Papagayo, Costa Rica). Bulletin of Marine Science. 69(1):151-169",CRI
3266,2440,Australia,Australia and Papua New Guinea,Torres Strait & Great Barrier Reef,Big Broadhurst Reef B,-18.8699,147.6952,,1980s,-1,1,GBRMPA  Historical Bleaching Database,AUS_GBR
1982,1823,Americas,Southern Tropical America,Panama,Chiriqui Gulf ( Golfo de Chiriqui ),8.0,-82.3333333333333,1.0,1980s,3,1,ReefBase,PAN
1870,2045,Americas,Southern Tropical America,Colombia,Gorgona Island ( Isla de Gorgona ),2.98333333333333,-78.2,,1980s,-1,1,ReefBase,COL
2091,701,Americas,U.S. Caribbean,Florida (USA),Big Pine Key,24.6922,-81.3728,,1980s,3,1,GCRMN 2000. Chapter 14,USA_FLO
1901,1834,Americas,Southern Tropical America,Costa Rica,Cahuita,9.75,-82.8,,1980s,-1,1,ReefBase,CRI
2592,2086,Asia,Southeast Asia,Indonesia,Pari Island ( Pulau Pari ),-5.86666666666667,106.616666666667,4.0,1980s,-1,1,ReefBase,IDN
1941,2035,Americas,Southern Tropical America,Ecuador,Galapagos Islands,-0.65,-90.3833333333333,,1980s,3,1,ReefBase,ECU
135,2129,Africa,Southwest Indian Ocean,Comoros,Mayotte Island,-12.8333333333333,45.2166666666667,5.0,1980s,3,1,ReefBase,COM
2593,2067,Asia,Southeast Asia,Indonesia,Pari Islands,-5.83333333333333,106.633333333333,,1980s,-1,1,ReefBase,IDN
2165,818,Americas,U.S. Caribbean,Florida (USA),Key West,24.5553,-81.7828,,1980s,3,1,GCRMN 2000. Chapter 14,USA_FLO
1333,2354,Americas,Northern Caribbean,Bahamas,Exuma Cays,24.5166666666667,-76.65,10.0,1980s,3,1,ReefBase,BHS
2360,2347,Asia,North and East Asia,Japan,Okinawa,26.5,128.0,6.0,1980s,-1,1,ReefBase,JPN
1942,2036,Americas,Southern Tropical America,Ecuador,Galapagos Islands,-0.65,-90.3833333333333,,1980s,3,1,ReefBase,ECU
2596,2065,Asia,Southeast Asia,Indonesia,Seribu Islands,-5.51666666666667,106.483333333333,3.0,1980s,3,1,ReefBase,IDN
1908,2020,Americas,Southern Tropical America,Costa Rica,Costa Rica,9.91666666666667,-84.1666666666667,6.0,1980s,-1,1,ReefBase,CRI
2603,2085,Asia,Southeast Asia,Indonesia,Tikus Island,-5.48333333333333,106.4,,1980s,-1,1,ReefBase,IDN
137,2131,Africa,Southwest Indian Ocean,Comoros,Mayotte Island,-12.8333333333333,45.2166666666667,,1980s,2,1,ReefBase,COM
1984,1813,Americas,Southern Tropical America,Panama,Contadora Island,8.61666666666667,-79.05,,1980s,-1,1,ReefBase,PAN
2172,2357,Americas,U.S. Caribbean,Florida (USA),Looe Key Reef,24.6166666666667,-81.4,,1980s,2,1,ReefBase,USA_FLO
1949,2033,Americas,Southern Tropical America,Ecuador,Onslow Island ( Devil's Crown ),-1.21666666666667,-90.3,5.0,1980s,2,1,ReefBase,ECU
1885,2031,Americas,Southern Tropical America,Colombia,Rosario Islands ( Islas del Rosario ),10.15,-75.75,,1980s,-1,1,ReefBase,COL
1981,1818,Americas,Southern Tropical America,Panama,Chiriqui Gulf ( Golfo de Chiriqui ),8.0,-82.3333333333333,,1980s,3,1,ReefBase,PAN
2569,2090,Asia,Southeast Asia,Indonesia,Karimun Jawa,-5.86666666666667,110.333333333333,5.0,1980s,-1,1,ReefBase,IDN
1344,2370,Americas,Northern Caribbean,Bahamas,Great Bahama Bank,25.0,-78.2,9.0,1980s,-1,1,ReefBase,BHS
1869,2044,Americas,Southern Tropical America,Colombia,Gorgona Island ( Isla de Gorgona ),2.98333333333333,-78.2,,1980s,-1,1,ReefBase,COL
2058,2106,Americas,Southern Tropical America,Panama,Uva Island,7.81666666666667,-81.7666666666667,,1980s,3,1,ReefBase,PAN
2050,2104,Americas,Southern Tropical America,Panama,Secas Islands,7.95,-82.0166666666667,,1980s,3,1,ReefBase,PAN
1931,2042,Americas,Southern Tropical America,Ecuador,CDRS ( Charles Darwin Research Station ),-0.741666666666667,-90.305,,1980s,3,1,ReefBase,ECU
2048,1831,Americas,Southern Tropical America,Panama,San Blas ( Kuna Yala ),9.55,-78.8666666666667,6.0,1980s,3,1,ReefBase,PAN
1857,2098,Americas,Southern Tropical America,Colombia,Colombia,7.0,-74.0,,1980s,-1,1,ReefBase,COL
2161,2345,Americas,U.S. Caribbean,Florida (USA),Key Largo,25.15,-80.2833333333333,,1980s,-1,1,ReefBase,USA_FLO
1892,1830,Americas,Southern Tropical America,Colombia,San Bernardo Islands ( Islas de San Bernardo ),9.75,-75.8333333333333,,1980s,-1,1,ReefBase,COL
1891,1829,Americas,Southern Tropical America,Colombia,San Bernardo Islands ( Islas de San Bernardo ),9.75,-75.8333333333333,,1980s,-1,1,ReefBase,COL
1920,1835,Americas,Southern Tropical America,Costa Rica,Punta Cocles,9.91666666666667,-82.8,6.0,1980s,-1,1,ReefBase,CRI
1932,2034,Americas,Southern Tropical America,Ecuador,Champion Island,-1.23333333333333,-90.3833333333333,5.0,1980s,2,1,ReefBase,ECU
1858,646,Americas,Southern Tropical America,Colombia,Colombia - Caribbean,10.1,-76.0,,1980s,3,1,"GCRMN 2000. Chapter 18, Table p340",COL
1922,2019,Americas,Southern Tropical America,Costa Rica,Punta Mona,9.73333333333333,-82.8166666666667,6.0,1980s,-1,1,ReefBase,CRI
2056,1814,Americas,Southern Tropical America,Panama,Uraba Island,8.78333333333333,-79.5333333333333,,1980s,-1,1,ReefBase,PAN
2042,734,Americas,Southern Tropical America,Panama,Panama - Pacific,7.7,-82.058,,1980s,3,1,GCRMN 2000. Chapter 18,PAN
5973,2341,Pacific,Southwest Pacific,New Caledonia,Reserve Speciale Tournante de Marine Faune,-22.4166666666667,166.333333333333,3.0,1980s,-1,1,ReefBase,NCL
1905,1825,Americas,Southern Tropical America,Costa Rica,Caño Island,8.71666666666667,-83.8666666666667,6.0,1980s,-1,1,ReefBase,CRI
2057,2105,Americas,Southern Tropical America,Panama,Uva Island,7.81666666666667,-81.7666666666667,,1980s,3,1,ReefBase,PAN
1916,2021,Americas,Southern Tropical America,Costa Rica,Manuel Antonio,9.38333333333333,-84.15,6.0,1980s,-1,1,ReefBase,CRI
1917,2018,Americas,Southern Tropical America,Costa Rica,Manzanillo,9.63333333333333,-82.6833333333333,6.0,1980s,-1,1,ReefBase,CRI
2046,1810,Americas,Southern Tropical America,Panama,Saboga Island,8.63333333333333,-79.0666666666667,,1980s,-1,1,ReefBase,PAN
5972,2334,Pacific,Southwest Pacific,New Caledonia,New Caledonia,-20.7166666666667,165.216666666667,,1980s,-1,1,ReefBase,NCL
2053,1815,Americas,Southern Tropical America,Panama,Taboga Island,8.8,-79.5666666666667,,1980s,-1,1,ReefBase,PAN
2039,1832,Americas,Southern Tropical America,Panama,Panama,8.25,-80.3666666666667,,1980s,-1,1,ReefBase,PAN
2049,2100,Americas,Southern Tropical America,Panama,Secas Islands,7.95,-82.0166666666667,,1980s,3,1,ReefBase,PAN
1906,1826,Americas,Southern Tropical America,Costa Rica,Caño Island,8.71666666666667,-83.8666666666667,6.0,1980s,-1,1,ReefBase,CRI
2333,2366,Asia,North and East Asia,Japan,Iriomote,24.3166666666667,123.883333333333,,1980s,-1,1,ReefBase,JPN
2059,2107,Americas,Southern Tropical America,Panama,Uva Island,7.81666666666667,-81.7666666666667,10.0,1980s,-1,1,ReefBase,PAN
3715,2295,Australia,Australia and Papua New Guinea,Torres Strait & Great Barrier Reef,GBR Central,-18.0,146.166666666667,,1980s,-1,1,ReefBase,AUS_GBR
5230,2242,Middle East,Persian Gulf,Kuwait,Umm al Maradim ( Umm al Maradem ),28.6333333333333,48.65,,1980s,-1,1,ReefBase,KWT
2359,2376,Asia,North and East Asia,Japan,Okinawa,26.5,128.0,6.0,1980s,3,1,ReefBase,JPN
225,2133,Americas,Eastern Caribbean,Barbados,Barbados,13.0391,-59.5231,,1980s,2,1,ReefBase,BRB
6174,2323,Pacific,US Pacific Islands,Hawaiian Islands (USA),Kapalua,21.0166666666667,-156.666666666667,11.0,1980s,-1,1,ReefBase,USA_HAW
6182,2324,Pacific,US Pacific Islands,Hawaiian Islands (USA),Oahu,21.35,-157.933333333333,,1980s,3,1,ReefBase,USA_HAW
6181,2322,Pacific,US Pacific Islands,Hawaiian Islands (USA),Napili Bay,21.0,-156.683333333333,11.0,1980s,-1,1,ReefBase,USA_HAW
2385,2319,Asia,North and East Asia,Taiwan,Effluet ( Outfall ),21.9333333333333,120.733666666667,,1980s,3,1,ReefBase,TWN
136,2130,Africa,Southwest Indian Ocean,Comoros,Mayotte Island,-12.8333333333333,45.2166666666667,5.0,1980s,3,1,ReefBase,COM
2247,2281,Americas,U.S. Caribbean,Puerto Rico,Culebra Island,18.3,-65.2666666666667,,1980s,-1,1,ReefBase,PRI
6178,2309,Pacific,US Pacific Islands,Hawaiian Islands (USA),Maui Island,20.8,-156.316666666667,,1980s,3,1,ReefBase,USA_HAW
2337,2249,Asia,North and East Asia,Japan,Japan,30.0,130.0,,1980s,-1,1,ReefBase,JPN
6165,2325,Pacific,US Pacific Islands,Hawaiian Islands (USA),Hawaii,18.3833333333333,-154.633333333333,8.0,1980s,3,1,ReefBase,USA_HAW
2279,2279,Americas,U.S. Caribbean,Puerto Rico,Puerto Rico,17.8666666666667,-66.4333333333333,,1980s,-1,1,ReefBase,PRI
28,2052,Africa,Eastern Africa,Kenya,Kenya,-3.36666666666667,40.4833333333333,,1980s,-1,1,ReefBase,KEN
5183,2495,Australia,Australia and Papua New Guinea,Torres Strait & Great Barrier Reef,Wreck Island Reef,-23.3333,151.964,,1980s,-1,1,GBRMPA  Historical Bleaching Database,AUS_GBR
3750,2240,Australia,Australia and Papua New Guinea,Torres Strait & Great Barrier Reef,Great Barrier Reef,-17.5,147.0,,1980s,-1,1,ReefBase,AUS_GBR
2200,3981,Americas,U.S. Caribbean,Florida (USA),Molasses,25.0,-80.372,8.0,1980s,2,1,"Lang, J.C., H.R. Lasker, E.H. Gladfelter, P. Hallock, W.C. Jaap, F.J. Losada and R.G. Muller, 1992.  Spatial and Temporal Variability during Periods of ""Recovery"" after Mass Bleaching on Western Atlantic Coral Reefs Amer. Zool. 32:696-706",USA_FLO
3959,2432,Australia,Australia and Papua New Guinea,Torres Strait & Great Barrier Reef,John Brewer Reef,-18.6339,147.0534,,1980s,0,0,GBRMPA  Historical Bleaching Database,AUS_GBR
4000,2426,Australia,Australia and Papua New Guinea,Torres Strait & Great Barrier Reef,Lady Elliot Reef,-18.6876,146.3348,,1980s,-1,1,GBRMPA  Historical Bleaching Database,AUS_GBR
2499,2048,Asia,South Asia,Maldives,Maldives,3.5,73.0,,1980s,-1,1,ReefBase,MDV
1826,2316,Americas,Northern Caribbean,Turks and Caicos Islands,Grand Turk Cays,21.4166666666667,-71.1166666666667,,1980s,-1,1,ReefBase,TCA
1695,2297,Americas,Northern Caribbean,Dominican Republic,Dominican Republic,19.1666666666667,-69.5333333333333,,1980s,-1,1,ReefBase,DOM
4062,2435,Australia,Australia and Papua New Guinea,Torres Strait & Great Barrier Reef,Lodestone Reef,-18.6973,147.1002,,1980s,0,0,GBRMPA  Historical Bleaching Database,AUS_GBR
1841,2317,Americas,Northern Caribbean,Turks and Caicos Islands,West Caicos,21.6666666666667,-72.4833333333333,12.0,1980s,-1,1,ReefBase,TCA
1829,2315,Americas,Northern Caribbean,Turks and Caicos Islands,Turks and Caicos,21.4,-71.1166666666667,,1980s,-1,1,ReefBase,TCA
3236,2488,Australia,Australia and Papua New Guinea,Torres Strait & Great Barrier Reef,Barren Island Reef,-23.1649,151.079,,1980s,-1,1,GBRMPA  Historical Bleaching Database,AUS_GBR
3237,2489,Australia,Australia and Papua New Guinea,Torres Strait & Great Barrier Reef,Barren Island Reef,-23.1642,151.0697,,1980s,-1,1,GBRMPA  Historical Bleaching Database,AUS_GBR
1775,2287,Americas,Northern Caribbean,Jamaica,Ocho Rios,18.4,-77.0833333333333,,1980s,-1,1,ReefBase,JAM
2317,2225,Americas,U.S. Caribbean,Virgin Islands (U.S.),US Virgin Islands,17.705,-64.693,,1980s,-1,1,"ReefBase old database
(Smith, A.H., C.S. Rogers and C. Bouchon, Status of Western Atlantic coral reefs in the Lesser Antilles,, p. 351-356. In: H.A. Lessios and I.G. Macintyre (eds.) Proceedings of the 8th International Coral Reef Symposium. Smithsonian Tropical Research Institute, Panama, 1.)",VIR
2138,3982,Americas,U.S. Caribbean,Florida (USA),Eastern Dry Rocks,24.54,-81.833,7.0,1980s,1,1,"Lang, J.C., H.R. Lasker, E.H. Gladfelter, P. Hallock, W.C. Jaap, F.J. Losada and R.G. Muller, 1992.  Spatial and Temporal Variability during Periods of ""Recovery"" after Mass Bleaching on Western Atlantic Coral Reefs Amer. Zool. 32:696-706",USA_FLO
5173,2494,Australia,Australia and Papua New Guinea,Torres Strait & Great Barrier Reef,Wilson Island Reef,-23.2924,151.8888,,1980s,-1,1,GBRMPA  Historical Bleaching Database,AUS_GBR
2325,2247,Asia,North and East Asia,Japan,Amami-Gunto,28.0,129.333333333333,,1980s,3,1,ReefBase,JPN
1855,2070,Americas,Southern Tropical America,Colombia,Colombia,7.0,-74.0,,1980s,-1,1,"ReefBase old database
(Williams, E.H. Jr. and L. Bunkley- Williams, The world wide coral reef bleaching cycle and related sources of coral mortality.  Atoll Res. Bull. 335:1-71.)",COL
1345,2318,Americas,Northern Caribbean,Bahamas,Great Inagua Island,21.15,-73.5166666666667,,1980s,-1,1,ReefBase,BHS
3798,2485,Australia,Australia and Papua New Guinea,Torres Strait & Great Barrier Reef,Halfway Island Reef,-23.2,150.9715,,1980s,-1,1,GBRMPA  Historical Bleaching Database,AUS_GBR
3755,2484,Australia,Australia and Papua New Guinea,Torres Strait & Great Barrier Reef,Great Keppel Island Reef,-23.1591,150.9566,,1980s,-1,1,GBRMPA  Historical Bleaching Database,AUS_GBR
2386,2320,Asia,North and East Asia,Taiwan,Effluet ( Outfall ),21.9333333333333,120.733666666667,,1980s,3,1,ReefBase,TWN
1859,647,Americas,Southern Tropical America,Colombia,Colombia - Caribbean,10.1,-76.0,,1980s,2,1,"GCRMN 2000. Chapter 18, Table p340",COL
6179,2310,Pacific,US Pacific Islands,Hawaiian Islands (USA),Maui Island,20.8,-156.316666666667,,1980s,3,1,ReefBase,USA_HAW
6166,2326,Pacific,US Pacific Islands,Hawaiian Islands (USA),Hawaii,18.3833333333333,-154.633333333333,,1980s,3,1,ReefBase,USA_HAW
4115,2185,Australia,Australia and Papua New Guinea,Torres Strait & Great Barrier Reef,Masthead Island Reef,-23.5367,151.7366,,1980s,-1,1,GBRMPA  Historical Bleaching Database,AUS_GBR
2160,2372,Americas,U.S. Caribbean,Florida (USA),Key Largo,25.15,-80.2833333333333,,1980s,-1,1,ReefBase,USA_FLO
1354,2352,Americas,Northern Caribbean,Bahamas,Little San Salvador ( Little Island ),24.566,-75.9333333333333,,1980s,-1,1,"ReefBase old database
(Williams, E.H. Jr. and L. Bunkley- Williams, The world wide coral reef bleaching cycle and related sources of coral mortality., Atoll Res. Bull. 335:1-71.)",BHS
3817,2454,Australia,Australia and Papua New Guinea,Torres Strait & Great Barrier Reef,Hardy Reef,-19.7636,149.2321,,1980s,-1,1,GBRMPA  Historical Bleaching Database,AUS_GBR
2140,3980,Americas,U.S. Caribbean,Florida (USA),Elkhorn Control,25.393,-80.168,8.0,1980s,1,1,"Lang, J.C., H.R. Lasker, E.H. Gladfelter, P. Hallock, W.C. Jaap, F.J. Losada and R.G. Muller, 1992.  Spatial and Temporal Variability during Periods of ""Recovery"" after Mass Bleaching on Western Atlantic Coral Reefs Amer. Zool. 32:696-706",USA_FLO
5176,2497,Australia,Australia and Papua New Guinea,Torres Strait & Great Barrier Reef,Wistari Reef,-23.4713,151.8803,,1980s,-1,1,GBRMPA  Historical Bleaching Database,AUS_GBR
2173,2358,Americas,U.S. Caribbean,Florida (USA),Looe Key Reef,24.6166666666667,-81.4,,1980s,-1,1,ReefBase,USA_FLO
2310,2227,Americas,U.S. Caribbean,Virgin Islands (U.S.),St. Croix,17.7333333333333,-64.7333333333333,,1980s,-1,1,ReefBase,VIR
2176,2557,Americas,U.S. Caribbean,Florida (USA),"Looe Key, Florida",25.15,-80.28,7.0,1980s,3,1,"Hudson, J. H. 1988.Coral bleaching at Looe Key National Park Marine Santuary, Florida. In Ogden, J. & R. Wicklund (ed.) Mass bleaching of coral reef in Carribean: A research strategy. National Undersea Research Programme Research Report 88-2",USA_FLO
3866,2496,Australia,Australia and Papua New Guinea,Torres Strait & Great Barrier Reef,Heron Island Reef,-23.4509,151.9647,,1980s,-1,1,GBRMPA  Historical Bleaching Database,AUS_GBR
5509,2254,Pacific,Southeast and Central Pacific,French Polynesia,Moorea,-17.575,-149.783333333333,,1980s,-1,1,ReefBase,PYF
2169,3983,Americas,U.S. Caribbean,Florida (USA),Looe Key,24.616,-81.4,7.0,1980s,1,1,"Lang, J.C., H.R. Lasker, E.H. Gladfelter, P. Hallock, W.C. Jaap, F.J. Losada and R.G. Muller, 1992.  Spatial and Temporal Variability during Periods of ""Recovery"" after Mass Bleaching on Western Atlantic Coral Reefs Amer. Zool. 32:696-706",USA_FLO
4007,2186,Australia,Australia and Papua New Guinea,Torres Strait & Great Barrier Reef,Lady Musgrave Island Ree,-23.9054,152.4082,,1980s,-1,1,GBRMPA  Historical Bleaching Database,AUS_GBR
1865,3973,Americas,Southern Tropical America,Colombia,Eastern Side of the Islas Pajarales Complex,9.803,-75.815,8.0,1980s,-1,1,"Lang, J. C., 1988.  Ecological and economic importance of coral reefs. Prepared statement for Committee on Appropriations, US Senate",COL
2146,2371,Americas,U.S. Caribbean,Florida (USA),Florida Reef Tract,25.2,-80.1666666666667,8.0,1980s,-1,1,ReefBase,USA_FLO
1348,3974,Americas,Northern Caribbean,Bahamas,Lee Stocking Island,23.77,-76.107,10.0,1980s,-1,1,"Lang, J. C., 1988.  Ecological and economic importance of coral reefs. Prepared statement for Committee on Appropriations, US Senate",BHS
1748,2553,Americas,Northern Caribbean,Jamaica,Discovery bay,18.4794,-77.3287,9.0,1980s,3,1,"Woodley, J.D. 1988. Coral Bleaching in Jamaica, 1987. In Ogden, J. & R. Wicklund (ed.) Mass bleaching of coral reef in Carribean: A research strategy. National Undersea Research Programme Research Report 88-2",JAM
4524,2428,Australia,Australia and Papua New Guinea,Torres Strait & Great Barrier Reef,Pandora Reef,-18.8138,146.4327,,1980s,0,0,GBRMPA  Historical Bleaching Database,AUS_GBR
3890,2452,Australia,Australia and Papua New Guinea,Torres Strait & Great Barrier Reef,Holbourne Island Reef,-19.7295,148.3633,,1980s,-1,1,GBRMPA  Historical Bleaching Database,AUS_GBR
4620,2416,Australia,Australia and Papua New Guinea,Torres Strait & Great Barrier Reef,Rib Reef,-18.4804,146.8729,,1980s,0,0,GBRMPA  Historical Bleaching Database,AUS_GBR
273,2126,Americas,Eastern Caribbean,Netherlands Antilles,Spaanse Water ( Spanish Water ),12.05,-68.8666666666667,,1980s,-1,1,ReefBase,ANT
3889,2451,Australia,Australia and Papua New Guinea,Torres Strait & Great Barrier Reef,Holbourne Island Reef,-19.7248,148.3567,,1980s,-1,1,GBRMPA  Historical Bleaching Database,AUS_GBR
1317,2355,Americas,Northern Caribbean,Bahamas,Bahamas,26.5333333333333,-76.9,,1980s,-1,1,ReefBase,BHS
280,2136,Americas,Eastern Caribbean,St. Lucia,St. Lucia,13.8333333333333,-61.0,,1980s,-1,1,ReefBase,LCA
4438,2290,Australia,Australia and Papua New Guinea,Torres Strait & Great Barrier Reef,Norman Reef,-16.4305,145.9965,,1980s,-1,1,GBRMPA  Historical Bleaching Database,AUS_GBR
2361,2348,Asia,North and East Asia,Japan,Okinawa,26.5,128.0,,1980s,-1,1,ReefBase,JPN
2474,2016,Asia,South Asia,Maldives,Addu Atoll ( Seenu Atoll ),0.7,73.1833333333333,,1980s,-1,1,ReefBase,MDV
1904,704,Americas,Southern Tropical America,Costa Rica,Cano Island,8.7333,-83.8833,,1980s,3,1,"Guzman, H.M. and Cortes, J. 2001. Changes in reef community structure after fifteen years of natural disturbances in the Eastern Pacific (Costa Rica). Bulletin of Marine Science. 69(1):133-149",CRI
1389,3976,Americas,Northern Caribbean,Bahamas,Rainbow Gardens,23.74,-76.066,9.0,1980s,2,1,"Lang, J.C., H.R. Lasker, E.H. Gladfelter, P. Hallock, W.C. Jaap, F.J. Losada and R.G. Muller, 1992.  Spatial and Temporal Variability during Periods of ""Recovery"" after Mass Bleaching on Western Atlantic Coral Reefs Amer. Zool. 32:696-706",BHS
4172,2418,Australia,Australia and Papua New Guinea,Torres Strait & Great Barrier Reef,Myrmidon Reef,-18.2683,147.3862,,1980s,0,0,GBRMPA  Historical Bleaching Database,AUS_GBR
2071,3978,Americas,Southern Tropical America,Venezuela,Cano Grande,10.2327,-66.05,11.0,1980s,1,1,"Lang, J.C., H.R. Lasker, E.H. Gladfelter, P. Hallock, W.C. Jaap, F.J. Losada and R.G. Muller, 1992.  Spatial and Temporal Variability during Periods of ""Recovery"" after Mass Bleaching on Western Atlantic Coral Reefs Amer. Zool. 32:696-706",VEN
2273,2273,Americas,U.S. Caribbean,Puerto Rico,Puerto Rico,17.8666666666667,-66.4333333333333,,1980s,-1,1,ReefBase,PRI
9,3975,,,St. Croix,Cane Bay,17.684,-64.739,9.0,1980s,1,1,"Lang, J.C., H.R. Lasker, E.H. Gladfelter, P. Hallock, W.C. Jaap, F.J. Losada and R.G. Muller, 1992.  Spatial and Temporal Variability during Periods of ""Recovery"" after Mass Bleaching on Western Atlantic Coral Reefs Amer. Zool. 32:696-706",VIR_CRO
3391,2474,Australia,Australia and Papua New Guinea,Torres Strait & Great Barrier Reef,Carlisle Island Reef,-20.8014,149.282,,1980s,-1,1,GBRMPA  Historical Bleaching Database,AUS_GBR
2047,2554,Americas,Southern Tropical America,Panama,San Blas,9.55,-78.87,11.0,1980s,1,1,"Knowlton, N. 1988. Bleaching in Panama. In Ogden, J. & R. Wicklund (ed.) Mass bleaching of coral reef in Carribean: A research strategy. National Undersea Research Programme Research Report 88-2",PAN
1895,3972,Americas,Southern Tropical America,Colombia,Southern Side of Isla Tesoro,10.174,-75.742,8.0,1980s,-1,1,"Lang, J. C., 1988.  Ecological and economic importance of coral reefs. Prepared statement for Committee on Appropriations, US Senate",COL
242,2118,Americas,Eastern Caribbean,Netherlands Antilles,Bonaire,12.1833333333333,-68.3,,1980s,3,1,ReefBase,ANT
1400,3977,Americas,Northern Caribbean,Bahamas,South Perry,23.745,-76.081,9.0,1980s,1,1,"Lang, J.C., H.R. Lasker, E.H. Gladfelter, P. Hallock, W.C. Jaap, F.J. Losada and R.G. Muller, 1992.  Spatial and Temporal Variability during Periods of ""Recovery"" after Mass Bleaching on Western Atlantic Coral Reefs Amer. Zool. 32:696-706",BHS
3614,2498,Australia,Australia and Papua New Guinea,Torres Strait & Great Barrier Reef,Erskine Island Reef,-23.5039,151.773,,1980s,-1,1,GBRMPA  Historical Bleaching Database,AUS_GBR
286,1819,Americas,Eastern Caribbean,Trinidad and Tobago,Tobago,11.2666666666667,-60.65,,1980s,-1,1,ReefBase,TTO
1913,557,Americas,Southern Tropical America,Costa Rica,Costa Rica - Pacific,9.0,-85.0,,1980s,2,1,GCRMN 2000. Chapter 18,CRI
2083,3979,Americas,Southern Tropical America,Venezuela,Punta Tucacas,10.781,-68.311,11.0,1980s,1,1,"Lang, J.C., H.R. Lasker, E.H. Gladfelter, P. Hallock, W.C. Jaap, F.J. Losada and R.G. Muller, 1992.  Spatial and Temporal Variability during Periods of ""Recovery"" after Mass Bleaching on Western Atlantic Coral Reefs Amer. Zool. 32:696-706",VEN
2269,2256,Americas,U.S. Caribbean,Puerto Rico,Mona Island ( Isla de Mona ),18.0666666666667,-67.8666666666667,,1980s,-1,1,ReefBase,PRI
3904,2464,Australia,Australia and Papua New Guinea,Torres Strait & Great Barrier Reef,Hook Island Reef A,-20.1068,148.9436,,1980s,-1,1,GBRMPA  Historical Bleaching Database,AUS_GBR
4053,2154,Australia,Australia and Papua New Guinea,Torres Strait & Great Barrier Reef,Lizard Island NW Side Re,-14.6514,145.4485,,1980s,-1,1,GBRMPA  Historical Bleaching Database,AUS_GBR
2081,2556,Americas,Southern Tropical America,Venezuela,"Playuela, Morrocoy",10.81,-68.14,12.0,1980s,1,1,"Losada, F.L. 1988. Report on coelentrate bleaching in the Southern Carribean, Venezuela. In Ogden, J. & R. Wicklund (ed.) Mass bleaching of coral reef in Carribean: A research strategy. National Undersea Research Programme Research Report 88-2",VEN
2393,2364,Asia,North and East Asia,Taiwan,Taiwan,23.05,121.15,,1980s,-1,1,ReefBase,TWN
3327,2475,Australia,Australia and Papua New Guinea,Torres Strait & Great Barrier Reef,Brampton Island Reef,-20.8159,149.2661,,1980s,-1,1,GBRMPA  Historical Bleaching Database,AUS_GBR
3492,2437,Australia,Australia and Papua New Guinea,Torres Strait & Great Barrier Reef,Davies Reef,-18.8239,147.6457,,1980s,0,0,GBRMPA  Historical Bleaching Database,AUS_GBR
1757,2283,Americas,Northern Caribbean,Jamaica,Jamaica,18.2,-77.25,,1980s,-1,1,ReefBase,JAM
4549,2420,Australia,Australia and Papua New Guinea,Torres Strait & Great Barrier Reef,Pelorus Island Reef,-18.56,146.4865,,1980s,-1,1,GBRMPA  Historical Bleaching Database,AUS_GBR
4905,2179,Australia,Australia and Papua New Guinea,Torres Strait & Great Barrier Reef,U/N,-16.1001,145.4668,,1980s,-1,1,GBRMPA  Historical Bleaching Database,AUS_GBR
251,2120,Americas,Eastern Caribbean,Netherlands Antilles,Curacao ( Curaçao ),12.1,-68.9666666666667,,1980s,1,1,ReefBase,ANT
2084,2555,Americas,Southern Tropical America,Venezuela,"Punta Tucacas, Morrocoy",10.85,-68.21,12.0,1980s,1,1,"Losada, F.L. 1988. Report on coelentrate bleaching in the Southern Carribean, Venezuela. In Ogden, J. & R. Wicklund (ed.) Mass bleaching of coral reef in Carribean: A research strategy. National Undersea Research Programme Research Report 88-2",VEN
1746,2285,Americas,Northern Caribbean,Jamaica,Discovery Bay,18.45,-77.3166666666667,7.0,1980s,-1,1,ReefBase,JAM
1896,3971,Americas,Southern Tropical America,Colombia,Southern Side of Islas del Rosario,10.137,-75.743,8.0,1980s,1,1,"Lang, J. C., 1988.  Ecological and economic importance of coral reefs. Prepared statement for Committee on Appropriations, US Senate",COL
4141,2482,Australia,Australia and Papua New Guinea,Torres Strait & Great Barrier Reef,Middle Island Reef,-23.1693,150.9147,,1980s,-1,1,GBRMPA  Historical Bleaching Database,AUS_GBR
3190,2175,Australia,Australia and Papua New Guinea,Torres Strait & Great Barrier Reef,Agincourt Reef No.2,-16.0236,145.8477,,1980s,-1,1,GBRMPA  Historical Bleaching Database,AUS_GBR
2248,2282,Americas,U.S. Caribbean,Puerto Rico,Culebra Island,18.3,-65.2666666666667,,1980s,-1,1,ReefBase,PRI
2202,2346,Americas,U.S. Caribbean,Florida (USA),Mosquito Bank,25.0666666666667,-80.4166666666667,,1980s,-1,1,ReefBase,USA_FLO
188,2328,Africa,Southwest Indian Ocean,Réunion,Reunion,-21.1166666666667,55.5,,1980s,-1,1,ReefBase,REU
2314,2271,Americas,U.S. Caribbean,Virgin Islands (U.S.),St. Thomas,18.3333333333333,-64.9333333333333,,1980s,-1,1,ReefBase,VIR
174,4023,Africa,Southwest Indian Ocean,Mauritius,Mauritius,-20.28,57.55,5.0,1980s,-1,1,Martin Pêcheux (martin-pecheux@wanadoo.fr) personal communication to ReefBase,MUS
2400,2116,Asia,South Asia,India,Andaman Islands,11.7333333333333,92.8833333333333,,1980s,-1,1,ReefBase,IND
2274,2274,Americas,U.S. Caribbean,Puerto Rico,Puerto Rico,17.8666666666667,-66.4333333333333,,1980s,-1,1,ReefBase,PRI
2291,2151,Americas,U.S. Caribbean,United States,East Flower Garden Banks,27.9166666666667,-93.6,,1990s,1,1,ReefBase,USA
2171,819,Americas,U.S. Caribbean,Florida (USA),Looe Key Reef,24.5566,-81.4008,,1990s,3,1,GCRMN 2000. Chapter 14,USA_FLO
5237,2375,Middle East,Persian Gulf,Oman,Musandam Reefs,26.25,56.3333333333333,8.0,1990s,-1,1,ReefBase,OMN
1290,2307,Americas,Mesoamerica,Mexico,Yal Ku,20.2666666666667,-87.2166666666667,,1990s,-1,1,ReefBase,MEX
2934,2073,Asia,Southeast Asia,Thailand,Phuket Reefs,8.0,98.3333333333333,3.0,1990s,3,1,ReefBase,THA
1388,3984,Americas,Northern Caribbean,Bahamas,"Rainbow Garden (on the bank), Perry Reef (shallow fringing reef, 20 m), and Adderley Dropoff (shelf-edge reef, 33 m), Lee Stocking Island",23.742,-76.051,8.0,1990s,1,1,"Dennis, G. D. and R.I. Wicklund., 1990.  The relationship between environmental factors and coral bleaching at Lee Stocking Island, Bahamas in 1990. Unpublished Report, Caribbean Marine Research Center, Florida, USA.",BHS
1860,654,Americas,Southern Tropical America,Colombia,Colombia - Caribbean,10.1,-76.0,,1990s,1,1,"GCRMN 2000. Chapter 18, Table p340",COL
2318,2226,Americas,U.S. Caribbean,Virgin Islands (U.S.),US Virgin Islands,17.705,-64.693,,1990s,-1,1,"ReefBase old database
(Smith, A.H., C.S. Rogers and C. Bouchon, Status of Western Atlantic coral reefs in the Lesser Antilles,, p. 351-356. In: H.A. Lessios and I.G. Macintyre (eds.) Proceedings of the 8th International Coral Reef Symposium. Smithsonian Tropical Research Institute, Panama, 1.)",VIR
596,2306,Americas,Mesoamerica,Mexico,Las Redes,20.2666666666667,-87.2166666666667,,1990s,-1,1,ReefBase,MEX
2929,2076,Asia,Southeast Asia,Thailand,Phuket Island,8.10416666666667,98.3028333333333,3.0,1990s,3,1,ReefBase,THA
2300,2245,Americas,U.S. Caribbean,United States,West Flower Garden Banks,27.8666666666667,-93.8166666666667,,1990s,-1,1,ReefBase,USA
1424,2251,Americas,Northern Caribbean,Bermuda,Bermuda,32.3,-64.75,7.0,1990s,-1,1,ReefBase,BMU
3987,2350,Australia,Australia and Papua New Guinea,Torres Strait & Great Barrier Reef,Keppel Islands,-23.1666666666667,150.983333333333,,1990s,2,1,ReefBase,AUS_GBR
5524,2266,Pacific,Southeast and Central Pacific,French Polynesia,Society Islands,-17.0,-151.0,3.0,1990s,3,1,ReefBase,PYF
2945,2111,Asia,Southeast Asia,Thailand,Yongkasaem Bay,7.83333333333333,98.7666666666667,,1990s,-1,1,ReefBase,THA
1903,688,Americas,Southern Tropical America,Costa Rica,Cano Island,8.7333,-83.8833,,1990s,3,1,"Jimenez, C., Cortes, J., Leon, A. and Ruiz, E. 2001. Coral Bleaching  and Mortality associated with the 1997-1998 El Nino in an upwelling environemnt in the Eastern Pacific (Gulf of Papagayo, Costa Rica). Bulletin of Marine Science. 69(1):151-169",CRI
2899,2074,Asia,Southeast Asia,Thailand,Andaman Reefs,8.0,98.5,7.0,1990s,3,1,ReefBase,THA
1406,4006,Americas,Northern Caribbean,Bahamas,Southern North Perry,23.764,-76.12,1.0,1990s,1,1,"Anthony, S. L., 1997.  Scleractinian coral mortality and color change on central Bahamian reefs: 1991-1995. Master's Thesis: University of Texas, Austin. 93 p.",BHS
2921,2110,Asia,Southeast Asia,Thailand,Panwa Cape ( Laem Phanwa ),7.75,98.4,,1990s,-1,1,ReefBase,THA
5494,2239,Pacific,Southeast and Central Pacific,French Polynesia,French Polynesia,-17.0,-143.0,2.0,1990s,3,1,ReefBase,PYF
2905,2670,Asia,Southeast Asia,Thailand,Ko Phuket,8.104,98.302,5.0,1990s,3,1,"Brown, B.E., R.P. Dunne and H. Chansang, 1996.  Coral bleaching relative to elevated seawater temperature in the Andaman Sea (Indian Ocean) over the last 50 years. Coral Reefs 15(3):151-152.",THA
5510,2255,Pacific,Southeast and Central Pacific,French Polynesia,Moorea,-17.575,-149.783333333333,3.0,1990s,3,1,ReefBase,PYF
5513,2261,Pacific,Southeast and Central Pacific,French Polynesia,Moorea,-17.575,-149.783333333333,,1990s,1,1,ReefBase,PYF
1380,4001,Americas,Northern Caribbean,Bahamas,Northern North Perry,23.796,-76.137,8.0,1990s,1,1,"Anthony, S. L., 1997.  Scleractinian coral mortality and color change on central Bahamian reefs: 1991-1995. Master's Thesis: University of Texas, Austin. 93 p.",BHS
3960,2433,Australia,Australia and Papua New Guinea,Torres Strait & Great Barrier Reef,John Brewer Reef,-18.6339,147.0534,,1990s,0,0,GBRMPA  Historical Bleaching Database,AUS_GBR
4118,2152,Australia,Australia and Papua New Guinea,Torres Strait & Great Barrier Reef,McGillivray Reef,-11.4515,143.7594,,1990s,0,0,GBRMPA  Historical Bleaching Database,AUS_GBR
4142,2483,Australia,Australia and Papua New Guinea,Torres Strait & Great Barrier Reef,Middle Island Reef,-23.1693,150.9147,,1990s,-1,1,GBRMPA  Historical Bleaching Database,AUS_GBR
3672,2386,Australia,Australia and Papua New Guinea,Torres Strait & Great Barrier Reef,Fitzroy Island Reef,-16.9338,145.9838,,1990s,0,0,GBRMPA  Historical Bleaching Database,AUS_GBR
4638,2159,Australia,Australia and Papua New Guinea,Torres Strait & Great Barrier Reef,Ribbon Reef No.10,-14.8332,145.6983,,1990s,0,0,GBRMPA  Historical Bleaching Database,AUS_GBR
4449,2158,Australia,Australia and Papua New Guinea,Torres Strait & Great Barrier Reef,North Direction Island R,-14.7425,145.5103,,1990s,0,0,GBRMPA  Historical Bleaching Database,AUS_GBR
245,2125,Americas,Eastern Caribbean,Netherlands Antilles,Bonaire,12.1833333333333,-68.3,6.0,1990s,2,1,ReefBase,ANT
3852,2434,Australia,Australia and Papua New Guinea,Torres Strait & Great Barrier Reef,Helix Reef,-18.6291,147.293,,1990s,0,0,GBRMPA  Historical Bleaching Database,AUS_GBR
4639,2165,Australia,Australia and Papua New Guinea,Torres Strait & Great Barrier Reef,Ribbon Reef No.5,-15.3665,145.7806,,1990s,0,0,GBRMPA  Historical Bleaching Database,AUS_GBR
4663,2170,Australia,Australia and Papua New Guinea,Torres Strait & Great Barrier Reef,Ruby Reef,-15.7494,145.7778,,1990s,0,0,GBRMPA  Historical Bleaching Database,AUS_GBR
5163,2308,Australia,Australia and Papua New Guinea,Torres Strait & Great Barrier Reef,Whitsunday Islands,-20.2666666666667,148.983333333333,4.0,1990s,1,1,ReefBase,AUS_GBR
4902,2167,Australia,Australia and Papua New Guinea,Torres Strait & Great Barrier Reef,U/N,-15.4629,145.6751,,1990s,0,0,GBRMPA  Historical Bleaching Database,AUS_GBR
3238,2490,Australia,Australia and Papua New Guinea,Torres Strait & Great Barrier Reef,Barren Island Reef,-23.1649,151.079,,1990s,-1,1,GBRMPA  Historical Bleaching Database,AUS_GBR
3937,2487,Australia,Australia and Papua New Guinea,Torres Strait & Great Barrier Reef,Humpy Island Reef,-23.2122,150.9675,,1990s,-1,1,GBRMPA  Historical Bleaching Database,AUS_GBR
3609,2171,Australia,Australia and Papua New Guinea,Torres Strait & Great Barrier Reef,Endeavour Reef,-15.7796,145.5803,,1990s,0,0,GBRMPA  Historical Bleaching Database,AUS_GBR
4903,2168,Australia,Australia and Papua New Guinea,Torres Strait & Great Barrier Reef,U/N,-15.5048,145.6171,,1990s,0,0,GBRMPA  Historical Bleaching Database,AUS_GBR
3779,2384,Australia,Australia and Papua New Guinea,Torres Strait & Great Barrier Reef,Green Island Reef,-16.769,145.9912,,1990s,0,0,GBRMPA  Historical Bleaching Database,AUS_GBR
4901,2166,Australia,Australia and Papua New Guinea,Torres Strait & Great Barrier Reef,U/N,-15.429,145.5076,,1990s,0,0,GBRMPA  Historical Bleaching Database,AUS_GBR
1407,4007,Americas,Northern Caribbean,Bahamas,Southern North Perry,23.764,-76.12,11.0,1990s,1,1,"Anthony, S. L., 1997.  Scleractinian coral mortality and color change on central Bahamian reefs: 1991-1995. Master's Thesis: University of Texas, Austin. 93 p.",BHS
4640,2160,Australia,Australia and Papua New Guinea,Torres Strait & Great Barrier Reef,Ribbon Reef No.9,-14.9931,145.7011,,1990s,0,0,GBRMPA  Historical Bleaching Database,AUS_GBR
5377,2549,Pacific,Micronesia,Marshall Islands,"Telap Islet, Majuro",7.08,171.392,12.0,1990s,3,1,"Paulay, G. & Y. Benayahu 1999.  Pattern and consequences of coral bleaching in Micronesia (Majuro and Guam) in 1992-1994.  Micronesica 31 (2): 109-124",MHL
3239,2491,Australia,Australia and Papua New Guinea,Torres Strait & Great Barrier Reef,Barren Island Reef,-23.1642,151.0697,,1990s,-1,1,GBRMPA  Historical Bleaching Database,AUS_GBR
3435,2446,Australia,Australia and Papua New Guinea,Torres Strait & Great Barrier Reef,Cockle Bay Reef,-19.1751,146.8138,,1990s,-1,1,GBRMPA  Historical Bleaching Database,AUS_GBR
4484,2183,Australia,Australia and Papua New Guinea,Torres Strait & Great Barrier Reef,Opal Reef,-16.2178,145.8886,,1990s,0,0,GBRMPA  Historical Bleaching Database,AUS_GBR
1377,3997,Americas,Northern Caribbean,Bahamas,Northern Norman's Pond Cay,24.65,-76.805,8.0,1990s,1,1,"Anthony, S. L., 1997.  Scleractinian coral mortality and color change on central Bahamian reefs: 1991-1995. Master's Thesis: University of Texas, Austin. 93 p.",BHS
3586,2493,Australia,Australia and Papua New Guinea,Torres Strait & Great Barrier Reef,Egg Rock Reef,-23.2004,151.1004,,1990s,-1,1,GBRMPA  Historical Bleaching Database,AUS_GBR
3585,2492,Australia,Australia and Papua New Guinea,Torres Strait & Great Barrier Reef,Egg Rock Reef,-23.1993,151.1009,,1990s,-1,1,GBRMPA  Historical Bleaching Database,AUS_GBR
3828,2389,Australia,Australia and Papua New Guinea,Torres Strait & Great Barrier Reef,Hastings Reef,-16.5212,146.0115,,1990s,0,0,GBRMPA  Historical Bleaching Database,AUS_GBR
1910,792,Americas,Southern Tropical America,Costa Rica,Costa Rica - Caribbean,10.0,-82.5,,1990s,1,1,GCRMN 2000. Chapter 18,CRI
3282,2462,Australia,Australia and Papua New Guinea,Torres Strait & Great Barrier Reef,Black Current Island Ree,-20.0655,148.4699,,1990s,-1,1,GBRMPA  Historical Bleaching Database,AUS_GBR
262,2123,Americas,Eastern Caribbean,Netherlands Antilles,Lac Lagoon,12.05,-68.2666666666667,6.0,1990s,1,1,ReefBase,ANT
4074,2184,Australia,Australia and Papua New Guinea,Torres Strait & Great Barrier Reef,Low Isles Reef,-16.3876,145.5644,,1990s,-1,1,GBRMPA  Historical Bleaching Database,AUS_GBR
4815,2164,Australia,Australia and Papua New Guinea,Torres Strait & Great Barrier Reef,Swinger Reef,-15.2441,145.5404,,1990s,0,0,GBRMPA  Historical Bleaching Database,AUS_GBR
1912,732,Americas,Southern Tropical America,Costa Rica,Costa Rica - Pacific,9.0,-85.0,,1990s,1,1,GCRMN 2000. Chapter 18,CRI
4054,2155,Australia,Australia and Papua New Guinea,Torres Strait & Great Barrier Reef,Lizard Island NW Side Re,-14.6514,145.4485,,1990s,0,0,GBRMPA  Historical Bleaching Database,AUS_GBR
4095,2445,Australia,Australia and Papua New Guinea,Torres Strait & Great Barrier Reef,Magnetic Island Reef F,-19.1118,146.861,,1990s,-1,1,GBRMPA  Historical Bleaching Database,AUS_GBR
3825,2162,Australia,Australia and Papua New Guinea,Torres Strait & Great Barrier Reef,Harrier Reef,-15.1386,145.6961,,1990s,0,0,GBRMPA  Historical Bleaching Database,AUS_GBR
3799,2486,Australia,Australia and Papua New Guinea,Torres Strait & Great Barrier Reef,Halfway Island Reef,-23.2,150.9715,,1990s,-1,1,GBRMPA  Historical Bleaching Database,AUS_GBR
4125,2481,Australia,Australia and Papua New Guinea,Torres Strait & Great Barrier Reef,Miall Island Reef,-23.1512,150.9044,,1990s,-1,1,GBRMPA  Historical Bleaching Database,AUS_GBR
4791,2163,Australia,Australia and Papua New Guinea,Torres Strait & Great Barrier Reef,Startle Reef,-15.2089,145.556,,1990s,0,0,GBRMPA  Historical Bleaching Database,AUS_GBR
3589,2161,Australia,Australia and Papua New Guinea,Torres Strait & Great Barrier Reef,Egret Reef,-15.4743,145.4175,,1990s,0,0,GBRMPA  Historical Bleaching Database,AUS_GBR
1381,4002,Americas,Northern Caribbean,Bahamas,Northern North Perry,23.796,-76.137,3.0,1990s,1,1,"Anthony, S. L., 1997.  Scleractinian coral mortality and color change on central Bahamian reefs: 1991-1995. Master's Thesis: University of Texas, Austin. 93 p.",BHS
3191,2174,Australia,Australia and Papua New Guinea,Torres Strait & Great Barrier Reef,Agincourt Reef No.4,-15.9508,145.8168,,1990s,-1,1,GBRMPA  Historical Bleaching Database,AUS_GBR
2043,662,Americas,Southern Tropical America,Panama,Panama - Pacific,7.7,-82.058,,1990s,1,1,"GCRMN 2000. Chapter 18, Table on p. 340",PAN
5374,2550,Pacific,Micronesia,Marshall Islands,"Mid northern, Majuro lagoon",7.158,171.069,12.0,1990s,3,1,"Paulay, G. & Y. Benayahu 1999.  Pattern and consequences of coral bleaching in Micronesia (Majuro and Guam) in 1992-1994.  Micronesica 31 (2): 109-124",MHL
4659,2169,Australia,Australia and Papua New Guinea,Torres Strait & Great Barrier Reef,Rosser Reef,-15.6104,145.5138,,1990s,0,0,GBRMPA  Historical Bleaching Database,AUS_GBR
2930,2077,Asia,Southeast Asia,Thailand,Phuket Island,8.10416666666667,98.3028333333333,,1990s,3,1,ReefBase,THA
2309,2546,Americas,U.S. Caribbean,Virgin Islands (U.S.),"St Thomas, Virgin Island",18.35,-65.0,10.0,1990s,1,1,"Quinn, N.J. & B. L. Kojis, 1999. Bull Mar Sci. 65(1):201-214",VIR
98,2069,Africa,Eastern Africa,Tanzania,Chumbe Island,-6.35,39.225,9.0,1990s,-1,1,ReefBase,TZA
1378,3998,Americas,Northern Caribbean,Bahamas,Northern Norman's Pond Cay,24.65,-76.805,4.0,1990s,2,1,"Anthony, S. L., 1997.  Scleractinian coral mortality and color change on central Bahamian reefs: 1991-1995. Master's Thesis: University of Texas, Austin. 93 p.",BHS
1408,4008,Americas,Northern Caribbean,Bahamas,Southern North Perry,23.764,-76.12,8.0,1990s,1,1,"Anthony, S. L., 1997.  Scleractinian coral mortality and color change on central Bahamian reefs: 1991-1995. Master's Thesis: University of Texas, Austin. 93 p.",BHS
1404,3995,Americas,Northern Caribbean,Bahamas,Southern Norman's Pond Cay,24.592,-76.806,6.0,1990s,1,1,"Anthony, S. L., 1997.  Scleractinian coral mortality and color change on central Bahamian reefs: 1991-1995. Master's Thesis: University of Texas, Austin. 93 p.",BHS
1382,4003,Americas,Northern Caribbean,Bahamas,Northern North Perry,23.796,-76.137,4.0,1990s,1,1,"Anthony, S. L., 1997.  Scleractinian coral mortality and color change on central Bahamian reefs: 1991-1995. Master's Thesis: University of Texas, Austin. 93 p.",BHS
1844,680,Americas,Southern Tropical America,Brazil,Brazil - Atlantic,0.0,-45.0,,1990s,1,1,GCRMN 2000. Chapter 18,BRA
2060,2108,Americas,Southern Tropical America,Panama,Uva Island,7.81666666666667,-81.7666666666667,5.0,1990s,3,1,ReefBase,PAN
460,2304,Americas,Mesoamerica,Mexico,Cozumel,20.4666666666667,-86.9666666666667,,1990s,-1,1,ReefBase,MEX
5373,2551,Pacific,Micronesia,Marshall Islands,Majuro lagoon,7.14,171.213,5.0,1990s,3,1,"Paulay, G. & Y. Benayahu 1999.  Pattern and consequences of coral bleaching in Micronesia (Majuro and Guam) in 1992-1994.  Micronesica 31 (2): 109-124",MHL
3851,2404,Australia,Australia and Papua New Guinea,Torres Strait & Great Barrier Reef,Hedley Reef,-17.2345,146.4816,,1990s,0,0,GBRMPA  Historical Bleaching Database,AUS_GBR
3330,2403,Australia,Australia and Papua New Guinea,Torres Strait & Great Barrier Reef,Briggs Reef,-16.94,146.2069,,1990s,0,0,GBRMPA  Historical Bleaching Database,AUS_GBR
3192,2176,Australia,Australia and Papua New Guinea,Torres Strait & Great Barrier Reef,Agincourt Reefs No.3,-15.9937,145.8295,,1990s,0,0,GBRMPA  Historical Bleaching Database,AUS_GBR
4593,2394,Australia,Australia and Papua New Guinea,Torres Strait & Great Barrier Reef,Pretty Patches,-16.6245,146.0417,,1990s,0,0,GBRMPA  Historical Bleaching Database,AUS_GBR
4128,2393,Australia,Australia and Papua New Guinea,Torres Strait & Great Barrier Reef,Michaelmas Reef,-16.5841,146.0171,,1990s,0,0,GBRMPA  Historical Bleaching Database,AUS_GBR
4162,2401,Australia,Australia and Papua New Guinea,Torres Strait & Great Barrier Reef,Moore Reef,-16.8745,146.2147,,1990s,0,0,GBRMPA  Historical Bleaching Database,AUS_GBR
5511,2259,Pacific,Southeast and Central Pacific,French Polynesia,Moorea,-17.575,-149.783333333333,4.0,1990s,3,1,ReefBase,PYF
5526,2262,Pacific,Southeast and Central Pacific,French Polynesia,Tahiti,-17.6666666666667,-149.45,3.0,1990s,2,1,ReefBase,PYF
4147,2449,Australia,Australia and Papua New Guinea,Torres Strait & Great Barrier Reef,Middle Reef,-19.1996,146.8145,,1990s,-1,1,GBRMPA  Historical Bleaching Database,AUS_GBR
4517,2379,Australia,Australia and Papua New Guinea,Torres Strait & Great Barrier Reef,Oyster Reef,-16.6429,145.9344,,1990s,0,0,GBRMPA  Historical Bleaching Database,AUS_GBR
5386,2205,Pacific,Micronesia,Northern Mariana Islands,Tanapag Lagoon,15.2333333333333,145.691666666667,,1990s,-1,1,ReefBase,NMI
3221,2456,Australia,Australia and Papua New Guinea,Torres Strait & Great Barrier Reef,Bait Reef,-19.8105,149.0749,,1990s,0,0,GBRMPA  Historical Bleaching Database,AUS_GBR
3575,2470,Australia,Australia and Papua New Guinea,Torres Strait & Great Barrier Reef,Edgell Reefs,-20.1327,149.9391,,1990s,0,0,GBRMPA  Historical Bleaching Database,AUS_GBR
4152,2399,Australia,Australia and Papua New Guinea,Torres Strait & Great Barrier Reef,Milln Reef,-16.7911,146.2716,,1990s,0,0,GBRMPA  Historical Bleaching Database,AUS_GBR
1409,4009,Americas,Northern Caribbean,Bahamas,Southern North Perry,23.764,-76.12,10.0,1990s,1,1,"Anthony, S. L., 1997.  Scleractinian coral mortality and color change on central Bahamian reefs: 1991-1995. Master's Thesis: University of Texas, Austin. 93 p.",BHS
4505,2421,Australia,Australia and Papua New Guinea,Torres Strait & Great Barrier Reef,Orpheus Island Reef E,-18.5807,146.495,,1990s,-1,1,GBRMPA  Historical Bleaching Database,AUS_GBR
5516,194,Pacific,Southeast and Central Pacific,French Polynesia,"Moorea, French Polynesia",-17.4976,-149.9163,,1990s,1,1,"Wilkinson, Clive",PYF
4614,2461,Australia,Australia and Papua New Guinea,Torres Strait & Great Barrier Reef,Rebe Reef,-19.8012,150.1529,,1990s,0,0,GBRMPA  Historical Bleaching Database,AUS_GBR
4904,2178,Australia,Australia and Papua New Guinea,Torres Strait & Great Barrier Reef,U/N,-16.0625,145.4653,,1990s,0,0,GBRMPA  Historical Bleaching Database,AUS_GBR
3943,2460,Australia,Australia and Papua New Guinea,Torres Strait & Great Barrier Reef,Hyde Reef,-19.7547,150.0837,,1990s,0,0,GBRMPA  Historical Bleaching Database,AUS_GBR
5521,2206,Pacific,Southeast and Central Pacific,French Polynesia,Rangiroa Atoll,-15.1666666666667,-147.666666666667,3.0,1990s,1,1,ReefBase,PYF
5504,2264,Pacific,Southeast and Central Pacific,French Polynesia,Hitia'a,-17.6,-149.3,3.0,1990s,2,1,ReefBase,PYF
3189,2177,Australia,Australia and Papua New Guinea,Torres Strait & Great Barrier Reef,Agincourt Reef No.1,-16.0504,145.8623,,1990s,0,0,GBRMPA  Historical Bleaching Database,AUS_GBR
4595,2396,Australia,Australia and Papua New Guinea,Torres Strait & Great Barrier Reef,Pretty Patches,-16.6474,146.0348,,1990s,0,0,GBRMPA  Historical Bleaching Database,AUS_GBR
3840,2463,Australia,Australia and Papua New Guinea,Torres Strait & Great Barrier Reef,Hayman Island Reef,-20.0655,148.8902,,1990s,0,0,GBRMPA  Historical Bleaching Database,AUS_GBR
96,2095,Africa,Eastern Africa,Tanzania,Chumbe Island,-6.35,39.225,,1990s,-1,1,ReefBase,TZA
5428,2329,Pacific,Southeast and Central Pacific,Cook Islands,Rarotonga,-21.2016666666667,-159.775833333333,,1990s,2,1,ReefBase,COK
4519,2473,Australia,Australia and Papua New Guinea,Torres Strait & Great Barrier Reef,Packer Reefs,-20.4817,150.2067,,1990s,0,0,GBRMPA  Historical Bleaching Database,AUS_GBR
4439,2291,Australia,Australia and Papua New Guinea,Torres Strait & Great Barrier Reef,Norman Reef,-16.4305,145.9965,,1990s,0,0,GBRMPA  Historical Bleaching Database,AUS_GBR
4508,2410,Australia,Australia and Papua New Guinea,Torres Strait & Great Barrier Reef,Otter Reef,-18.0529,146.5574,,1990s,0,0,GBRMPA  Historical Bleaching Database,AUS_GBR
5493,2265,Pacific,Southeast and Central Pacific,French Polynesia,Faaa,-17.5413333333333,-149.619333333333,3.0,1990s,3,1,ReefBase,PYF
5381,2204,Pacific,Micronesia,Northern Mariana Islands,Okino Reef,15.2166666666667,145.683333333333,,1990s,-1,1,ReefBase,NMI
3300,2468,Australia,Australia and Papua New Guinea,Torres Strait & Great Barrier Reef,Border Island Reef A,-20.1736,149.03,,1990s,0,0,GBRMPA  Historical Bleaching Database,AUS_GBR
4518,2472,Australia,Australia and Papua New Guinea,Torres Strait & Great Barrier Reef,Packer Reefs,-20.4765,150.2071,,1990s,0,0,GBRMPA  Historical Bleaching Database,AUS_GBR
5427,2296,Pacific,Southeast and Central Pacific,Cook Islands,Aitutaki Atoll,-18.8625,-159.802833333333,3.0,1990s,1,1,ReefBase,COK
5537,2253,Pacific,Southeast and Central Pacific,French Polynesia,Tiahura,-17.5,-149.916666666667,3.0,1990s,1,1,ReefBase,PYF
5359,2552,Pacific,Micronesia,Federated States of Micronesia,Guam,13.433,144.65,9.0,1990s,3,1,"Paulay, G. & Y. Benayahu 1999.  Pattern and consequences of coral bleaching in Micronesia (Majuro and Guam) in 1992-1994.  Micronesica 31 (2): 109-124",FSM
3829,2390,Australia,Australia and Papua New Guinea,Torres Strait & Great Barrier Reef,Hastings Reef,-16.5212,146.0115,,1990s,0,0,GBRMPA  Historical Bleaching Database,AUS_GBR
4577,2458,Australia,Australia and Papua New Guinea,Torres Strait & Great Barrier Reef,Plaster Reef,-19.6328,149.6687,,1990s,0,0,GBRMPA  Historical Bleaching Database,AUS_GBR
4121,2478,Australia,Australia and Papua New Guinea,Torres Strait & Great Barrier Reef,McIntyre Reef,-20.7187,150.4687,,1990s,0,0,GBRMPA  Historical Bleaching Database,AUS_GBR
4893,2457,Australia,Australia and Papua New Guinea,Torres Strait & Great Barrier Reef,U/N,-19.8049,149.4245,,1990s,0,0,GBRMPA  Historical Bleaching Database,AUS_GBR
3259,2471,Australia,Australia and Papua New Guinea,Torres Strait & Great Barrier Reef,Ben Reef,-20.0055,150.3209,,1990s,0,0,GBRMPA  Historical Bleaching Database,AUS_GBR
3302,2466,Australia,Australia and Papua New Guinea,Torres Strait & Great Barrier Reef,Border Island Reef C,-20.1581,149.0338,,1990s,0,0,GBRMPA  Historical Bleaching Database,AUS_GBR
3353,2409,Australia,Australia and Papua New Guinea,Torres Strait & Great Barrier Reef,Brook Islands Reef,-18.1502,146.2894,,1990s,-1,1,GBRMPA  Historical Bleaching Database,AUS_GBR
4135,2380,Australia,Australia and Papua New Guinea,Torres Strait & Great Barrier Reef,Middle Cay Reef B,-16.654,145.9924,,1990s,0,0,GBRMPA  Historical Bleaching Database,AUS_GBR
4134,2381,Australia,Australia and Papua New Guinea,Torres Strait & Great Barrier Reef,Middle Cay Reef A,-16.6467,145.9766,,1990s,0,0,GBRMPA  Historical Bleaching Database,AUS_GBR
3204,2397,Australia,Australia and Papua New Guinea,Torres Strait & Great Barrier Reef,Arlington Reef,-16.7012,146.0509,,1990s,0,0,GBRMPA  Historical Bleaching Database,AUS_GBR
4899,2378,Australia,Australia and Papua New Guinea,Torres Strait & Great Barrier Reef,U/N,-16.6231,145.9494,,1990s,0,0,GBRMPA  Historical Bleaching Database,AUS_GBR
3818,2455,Australia,Australia and Papua New Guinea,Torres Strait & Great Barrier Reef,Hardy Reef,-19.7636,149.2321,,1990s,0,0,GBRMPA  Historical Bleaching Database,AUS_GBR
5098,2181,Australia,Australia and Papua New Guinea,Torres Strait & Great Barrier Reef,Undine Reef B,-16.1175,145.7756,,1990s,0,0,GBRMPA  Historical Bleaching Database,AUS_GBR
3197,2172,Australia,Australia and Papua New Guinea,Torres Strait & Great Barrier Reef,Andersen Reef,-15.7936,145.796,,1990s,0,0,GBRMPA  Historical Bleaching Database,AUS_GBR
3301,2467,Australia,Australia and Papua New Guinea,Torres Strait & Great Barrier Reef,Border Island Reef B,-20.1678,149.0378,,1990s,0,0,GBRMPA  Historical Bleaching Database,AUS_GBR
3780,2385,Australia,Australia and Papua New Guinea,Torres Strait & Great Barrier Reef,Green Island Reef,-16.769,145.9912,,1990s,0,0,GBRMPA  Historical Bleaching Database,AUS_GBR
5431,2263,Pacific,Southeast and Central Pacific,French Polynesia,Arue,-17.5166666666667,-149.533333333333,3.0,1990s,2,1,ReefBase,PYF
4894,2469,Australia,Australia and Papua New Guinea,Torres Strait & Great Barrier Reef,U/N,-20.0344,149.6888,,1990s,0,0,GBRMPA  Historical Bleaching Database,AUS_GBR
4906,2180,Australia,Australia and Papua New Guinea,Torres Strait & Great Barrier Reef,U/N,-16.0809,145.7233,,1990s,0,0,GBRMPA  Historical Bleaching Database,AUS_GBR
3691,2398,Australia,Australia and Papua New Guinea,Torres Strait & Great Barrier Reef,Flynn Reef,-16.7377,146.2708,,1990s,0,0,GBRMPA  Historical Bleaching Database,AUS_GBR
4769,2465,Australia,Australia and Papua New Guinea,Torres Strait & Great Barrier Reef,South Molle Island Reef,-20.26,148.8371,,1990s,0,0,GBRMPA  Historical Bleaching Database,AUS_GBR
3469,2476,Australia,Australia and Papua New Guinea,Torres Strait & Great Barrier Reef,Credlin Reefs,-20.5406,149.9503,,1990s,0,0,GBRMPA  Historical Bleaching Database,AUS_GBR
3654,2430,Australia,Australia and Papua New Guinea,Torres Strait & Great Barrier Reef,Fantome Island Reef,-18.6782,146.5105,,1990s,-1,1,GBRMPA  Historical Bleaching Database,AUS_GBR
3665,2406,Australia,Australia and Papua New Guinea,Torres Strait & Great Barrier Reef,Feather Reef,-17.5303,146.3776,,1990s,0,0,GBRMPA  Historical Bleaching Database,AUS_GBR
3599,2407,Australia,Australia and Papua New Guinea,Torres Strait & Great Barrier Reef,Ellison Reef,-17.7247,146.3947,,1990s,0,0,GBRMPA  Historical Bleaching Database,AUS_GBR
4683,2292,Australia,Australia and Papua New Guinea,Torres Strait & Great Barrier Reef,Saxon Reef,-16.4677,145.9879,,1990s,0,0,GBRMPA  Historical Bleaching Database,AUS_GBR
5132,2382,Australia,Australia and Papua New Guinea,Torres Strait & Great Barrier Reef,Upolu Cay Reef,-16.6745,145.939,,1990s,0,0,GBRMPA  Historical Bleaching Database,AUS_GBR
5145,2405,Australia,Australia and Papua New Guinea,Torres Strait & Great Barrier Reef,Wardle Reef,-17.4322,146.5441,,1990s,0,0,GBRMPA  Historical Bleaching Database,AUS_GBR
3493,2438,Australia,Australia and Papua New Guinea,Torres Strait & Great Barrier Reef,Davies Reef,-18.8239,147.6457,,1990s,0,0,GBRMPA  Historical Bleaching Database,AUS_GBR
4897,2413,Australia,Australia and Papua New Guinea,Torres Strait & Great Barrier Reef,U/N,-18.3244,146.7442,,1990s,0,0,GBRMPA  Historical Bleaching Database,AUS_GBR
3466,2477,Australia,Australia and Papua New Guinea,Torres Strait & Great Barrier Reef,Creal Reef,-20.5361,150.3808,,1990s,0,0,GBRMPA  Historical Bleaching Database,AUS_GBR
4895,2453,Australia,Australia and Papua New Guinea,Torres Strait & Great Barrier Reef,U/N,-19.7621,149.365,,1990s,0,0,GBRMPA  Historical Bleaching Database,AUS_GBR
4896,2391,Australia,Australia and Papua New Guinea,Torres Strait & Great Barrier Reef,U/N,-16.5673,146.0017,,1990s,0,0,GBRMPA  Historical Bleaching Database,AUS_GBR
3436,2448,Australia,Australia and Papua New Guinea,Torres Strait & Great Barrier Reef,Cockle Bay Reef,-19.1751,146.8138,,1990s,-1,1,GBRMPA  Historical Bleaching Database,AUS_GBR
3593,2402,Australia,Australia and Papua New Guinea,Torres Strait & Great Barrier Reef,Elford Reef,-16.9167,146.2475,,1990s,0,0,GBRMPA  Historical Bleaching Database,AUS_GBR
2878,2218,Asia,Southeast Asia,Philippines,Silaqui ( Silaki ),16.45,119.916666666667,10.0,1990s,2,1,ReefBase,PHL
4656,2459,Australia,Australia and Papua New Guinea,Torres Strait & Great Barrier Reef,Ross Reef,-19.8763,149.5817,,1990s,0,0,GBRMPA  Historical Bleaching Database,AUS_GBR
5231,2342,Middle East,Persian Gulf,Oman,Bandar Khayran,23.5216666666667,58.7333333333333,,1990s,3,1,ReefBase,OMN
4503,2425,Australia,Australia and Papua New Guinea,Torres Strait & Great Barrier Reef,Orpheus Island Reef C,-18.6567,146.4841,,1990s,-1,1,GBRMPA  Historical Bleaching Database,AUS_GBR
4502,2423,Australia,Australia and Papua New Guinea,Torres Strait & Great Barrier Reef,Orpheus Island Reef B,-18.6355,146.4939,,1990s,-1,1,GBRMPA  Historical Bleaching Database,AUS_GBR
5525,2267,Pacific,Southeast and Central Pacific,French Polynesia,Society Islands,-17.0,-151.0,,1990s,-1,1,ReefBase,PYF
4500,2422,Australia,Australia and Papua New Guinea,Torres Strait & Great Barrier Reef,Orpheus Island Reef A,-18.6036,146.4864,,1990s,-1,1,GBRMPA  Historical Bleaching Database,AUS_GBR
3254,2408,Australia,Australia and Papua New Guinea,Torres Strait & Great Barrier Reef,Beaver Reef,-17.8491,146.4868,,1990s,0,0,GBRMPA  Historical Bleaching Database,AUS_GBR
2931,2078,Asia,Southeast Asia,Thailand,Phuket Island,8.10416666666667,98.3028333333333,3.0,1990s,-1,1,ReefBase,THA
4093,2447,Australia,Australia and Papua New Guinea,Torres Strait & Great Barrier Reef,Magnetic Island Reef F,-19.1118,146.861,,1990s,-1,1,GBRMPA  Historical Bleaching Database,AUS_GBR
1383,4004,Americas,Northern Caribbean,Bahamas,Northern North Perry,23.796,-76.137,3.0,1990s,1,1,"Anthony, S. L., 1997.  Scleractinian coral mortality and color change on central Bahamian reefs: 1991-1995. Master's Thesis: University of Texas, Austin. 93 p.",BHS
5352,2202,Pacific,Micronesia,American Samoa,Tutuila Island,-14.3,-170.7,3.0,1990s,3,1,ReefBase,ASM
1379,3999,Americas,Northern Caribbean,Bahamas,Northern Norman's Pond Cay,24.65,-76.805,3.0,1990s,1,1,"Anthony, S. L., 1997.  Scleractinian coral mortality and color change on central Bahamian reefs: 1991-1995. Master's Thesis: University of Texas, Austin. 93 p.",BHS
5353,2145,Pacific,Micronesia,American Samoa,Tutuila Island,-14.3,-170.7,4.0,1990s,-1,1,ReefBase,ASM
4525,2429,Australia,Australia and Papua New Guinea,Torres Strait & Great Barrier Reef,Pandora Reef,-18.8138,146.4327,,1990s,-1,1,GBRMPA  Historical Bleaching Database,AUS_GBR
4900,2293,Australia,Australia and Papua New Guinea,Torres Strait & Great Barrier Reef,U/N,-16.5478,145.9488,,1990s,0,0,GBRMPA  Historical Bleaching Database,AUS_GBR
4833,2400,Australia,Australia and Papua New Guinea,Torres Strait & Great Barrier Reef,Thetford Reef,-16.8045,146.1836,,1990s,0,0,GBRMPA  Historical Bleaching Database,AUS_GBR
4504,2424,Australia,Australia and Papua New Guinea,Torres Strait & Great Barrier Reef,Orpheus Island Reef D,-18.6408,146.5049,,1990s,-1,1,GBRMPA  Historical Bleaching Database,AUS_GBR
4594,2395,Australia,Australia and Papua New Guinea,Torres Strait & Great Barrier Reef,Pretty Patches,-16.6431,146.0245,,1990s,0,0,GBRMPA  Historical Bleaching Database,AUS_GBR
3979,2414,Australia,Australia and Papua New Guinea,Torres Strait & Great Barrier Reef,Kelso Reef,-18.4336,146.9907,,1990s,0,0,GBRMPA  Historical Bleaching Database,AUS_GBR
3615,2173,Australia,Australia and Papua New Guinea,Torres Strait & Great Barrier Reef,Escape Reef,-15.8773,145.7932,,1990s,0,0,GBRMPA  Historical Bleaching Database,AUS_GBR
3673,2387,Australia,Australia and Papua New Guinea,Torres Strait & Great Barrier Reef,Fitzroy Island Reef,-16.9338,145.9838,,1990s,0,0,GBRMPA  Historical Bleaching Database,AUS_GBR
1325,2343,Americas,Northern Caribbean,Bahamas,Conception Island,23.8333333333333,-75.1166666666667,,1990s,-1,1,ReefBase,BHS
5097,2182,Australia,Australia and Papua New Guinea,Torres Strait & Great Barrier Reef,Undine Reef A,-16.1248,145.689,,1990s,0,0,GBRMPA  Historical Bleaching Database,AUS_GBR
4898,2377,Australia,Australia and Papua New Guinea,Torres Strait & Great Barrier Reef,U/N,-16.5826,145.9798,,1990s,0,0,GBRMPA  Historical Bleaching Database,AUS_GBR
5497,6743,Pacific,Southeast and Central Pacific,French Polynesia,Hikueru Atoll,-17.545831,-142.666477,9.0,1990s,-1,1,"Adjeroud, M., S. Andrefouet and C. Payri. 2001.Mass mortality of macrobenthic communities in the lagoon of Hikueru atoll. Coral Reefs 19: 2987-291pp",PYF
312,2234,Americas,Mesoamerica,Belize,Belize,17.3166666666667,-88.0,9.0,1990s,-1,1,ReefBase,BLZ
302,2288,Americas,Mesoamerica,Belize,Ambergris Cay,18.0333333333333,-87.8833333333333,,1990s,3,1,ReefBase,BLZ
352,2230,Americas,Mesoamerica,Belize,Half Moon Caye,17.15,-87.5666666666667,,1990s,3,1,ReefBase,BLZ
5496,6742,Pacific,Southeast and Central Pacific,French Polynesia,Hikueru Atoll,-17.591819,-142.551706,9.0,1990s,-1,1,"Adjeroud, M., S. Andrefouet and C. Payri. 2001.Mass mortality of macrobenthic communities in the lagoon of Hikueru atoll. Coral Reefs 19: 2987-291pp",PYF
2041,733,Americas,Southern Tropical America,Panama,Panama - Caribbean,7.7,-82.058,,1990s,1,1,"GCRMN 2000. Chapter 18, Table p. 340",PAN
2044,663,Americas,Southern Tropical America,Panama,Panama - Pacific,7.7,-82.058,,1990s,1,1,"GCRMN 2000. Chapter 18, Table p. 340",PAN
1405,3996,Americas,Northern Caribbean,Bahamas,Southern Norman's Pond Cay,24.592,-76.806,8.0,1990s,2,1,"Anthony, S. L., 1997.  Scleractinian coral mortality and color change on central Bahamian reefs: 1991-1995. Master's Thesis: University of Texas, Austin. 93 p.",BHS
1410,4010,Americas,Northern Caribbean,Bahamas,Southern North Perry,23.764,-76.12,6.0,1990s,2,1,"Anthony, S. L., 1997.  Scleractinian coral mortality and color change on central Bahamian reefs: 1991-1995. Master's Thesis: University of Texas, Austin. 93 p.",BHS
318,2210,Americas,Mesoamerica,Belize,Carrie Bow Cay,16.8,-88.0833333333333,,1990s,2,1,ReefBase,BLZ
5503,6749,Pacific,Southeast and Central Pacific,French Polynesia,Hikueru Atoll,-17.581545,-142.618291,9.0,1990s,-1,1,"Adjeroud, M., S. Andrefouet and C. Payri. 2001.Mass mortality of macrobenthic communities in the lagoon of Hikueru atoll. Coral Reefs 19: 2987-291pp",PYF
5501,6747,Pacific,Southeast and Central Pacific,French Polynesia,Hikueru Atoll,-17.615326,-142.640503,9.0,1990s,-1,1,"Adjeroud, M., S. Andrefouet and C. Payri. 2001.Mass mortality of macrobenthic communities in the lagoon of Hikueru atoll. Coral Reefs 19: 2987-291pp",PYF
1384,4005,Americas,Northern Caribbean,Bahamas,Northern North Perry,23.796,-76.137,2.0,1990s,2,1,"Anthony, S. L., 1997.  Scleractinian coral mortality and color change on central Bahamian reefs: 1991-1995. Master's Thesis: University of Texas, Austin. 93 p.",BHS
5498,6744,Pacific,Southeast and Central Pacific,French Polynesia,Hikueru Atoll,-17.542679,-142.65935,9.0,1990s,-1,1,"Adjeroud, M., S. Andrefouet and C. Payri. 2001.Mass mortality of macrobenthic communities in the lagoon of Hikueru atoll. Coral Reefs 19: 2987-291pp",PYF
5499,6745,Pacific,Southeast and Central Pacific,French Polynesia,Hikueru Atoll,-17.541273,-142.62881,9.0,1990s,-1,1,"Adjeroud, M., S. Andrefouet and C. Payri. 2001.Mass mortality of macrobenthic communities in the lagoon of Hikueru atoll. Coral Reefs 19: 2987-291pp",PYF
5502,6748,Pacific,Southeast and Central Pacific,French Polynesia,Hikueru Atoll,-17.600178,-142.610513,9.0,1990s,-1,1,"Adjeroud, M., S. Andrefouet and C. Payri. 2001.Mass mortality of macrobenthic communities in the lagoon of Hikueru atoll. Coral Reefs 19: 2987-291pp",PYF
2858,1837,Asia,Southeast Asia,Philippines,Panubulon Island ( Panobolon ),10.3833333333333,122.6,,1990s,-1,1,ReefBase,PHL
5500,6746,Pacific,Southeast and Central Pacific,French Polynesia,Hikueru Atoll,-17.629862,-142.571099,9.0,1990s,-1,1,"Adjeroud, M., S. Andrefouet and C. Payri. 2001.Mass mortality of macrobenthic communities in the lagoon of Hikueru atoll. Coral Reefs 19: 2987-291pp",PYF
2938,2672,Asia,Southeast Asia,Thailand,Similan Island,8.661,97.652,5.0,1990s,3,1,"Phongsuwan, N., 1998.  Extensive coral mortality as a result of bleaching in the Andaman Sea in 1995. Coral Reefs 17(1):70.",THA
2085,679,Americas,Southern Tropical America,Venezuela,Venezuela - Caribbean,12.0,-67.0,,1990s,1,1,GCRMN 2000. Chapter 18,VEN
2927,2543,Asia,Southeast Asia,Thailand,Phuket,8.0,98.33,5.0,1990s,3,1,"Dunne, R.P. & B.E. Brown. 2001. The influence of solar radiation on bleaching of shallow water reef corals in the Andaman Sea, 1993-1998.  Coral Reef 20:201-210",THA
1861,655,Americas,Southern Tropical America,Colombia,Colombia - Caribbean,10.1,-76.0,,1990s,1,1,GCRMN 2000. Chapter 18,COL
2886,1840,Asia,Southeast Asia,Philippines,Unisan Island,10.3416666666667,122.595,,1990s,-1,1,ReefBase,PHL
401,2232,Americas,Mesoamerica,Belize,Turneffe,17.4166666666667,-87.8333333333333,,1990s,3,1,ReefBase,BLZ
2942,2671,Asia,Southeast Asia,Thailand,Surin Islands,9.41,97.896,5.0,1990s,3,1,"Phongsuwan, N., 1998.  Extensive coral mortality as a result of bleaching in the Andaman Sea in 1995. Coral Reefs 17(1):70.",THA
5971,746,Pacific,Southwest Pacific,New Caledonia,New Caledonia,-21.5,165.5,,1990s,1,1,GCRMN 2000. Chapter 10,NCL
414,752,Americas,Mesoamerica,Honduras,Cayos Cochinos,15.9667,-86.45,,1990s,3,1,GCRMN 2000. Chapter 16,HND
5225,775,Middle East,Persian Gulf,Iran,Faroor,26.24,55.14,,1990s,2,1,GCRMN 2000. Chapter 3,IRN
5210,712,Middle East,Persian Gulf,Bahrain,Fasht Al Adhom,26.0,50.5,,1990s,3,1,GCRMN 2000. Chapter 3,BHR
5217,3932,Middle East,Persian Gulf,Bahrain,"Jabari, South east of bahrain",25.918,50.697,9.0,1990s,3,1,"Uwate, K.R., J. Almeshkhas and H. Almahgani, 1997
Field observation of coral bleaching in Bahrain in 1996. Directorate of Fisheries, Ministry of Works and Agricalture, State of Bahrain.",BHR
3151,2047,Australia,Australia and Papua New Guinea,Papua New Guinea,New Ireland,-2.68333333333333,150.566666666667,3.0,1990s,3,1,ReefBase,PNG
5215,3927,Middle East,Persian Gulf,Bahrain,"Half Tanker, Fasht Al Adhom",26.077,50.762,9.0,1990s,3,1,"Uwate, K.R., J. Almeshkhas and H. Almahgani, 1997
Field observation of coral bleaching in Bahrain in 1996. Directorate of Fisheries, Ministry of Works and Agricalture, State of Bahrain.",BHR
5247,783,Middle East,Persian Gulf,United Arab Emirates,Abu Dhabi,24.45,54.3833,8.0,1990s,3,1,GCRMN 2000. Chapter 3,ARE
6173,3934,Pacific,US Pacific Islands,Hawaiian Islands (USA),"Kaneohe Bay, Hawaii",21.432,-157.794,9.0,1990s,3,1,"Jokiel, P.L. personal communication to  NOAA & ReefBase (18/7/2003)",USA_HAW
5223,3933,Middle East,Persian Gulf,Bahrain,West Fasht al Dibal,26.25,50.929,10.0,1990s,3,1,"Uwate, K.R., J. Almeshkhas and H. Almahgani, 1997
Field observation of coral bleaching in Bahrain in 1996. Directorate of Fisheries, Ministry of Works and Agricalture, State of Bahrain.",BHR
5512,2260,Pacific,Southeast and Central Pacific,French Polynesia,Moorea,-17.575,-149.783333333333,2.0,1990s,2,1,ReefBase,PYF
5201,3926,Middle East,Persian Gulf,Bahrain,Abul Thalma,26.275,50.94,10.0,1990s,3,1,"Uwate, K.R., J. Almeshkhas and H. Almahgani, 1997
Field observation of coral bleaching in Bahrain in 1996. Directorate of Fisheries, Ministry of Works and Agricalture, State of Bahrain.",BHR
5212,730,Middle East,Persian Gulf,Bahrain,Fasht Al Dibal,26.0,50.5,,1990s,3,1,GCRMN 2000. Chapter 3,BHR
5202,731,Middle East,Persian Gulf,Bahrain,Abul Thama,26.0,50.5,,1990s,2,1,GCRMN 2000. Chapter 3,BHR
5227,774,Middle East,Persian Gulf,Iran,Kish,26.5769,53.9417,,1990s,2,1,GCRMN 2000. Chapter 3,IRN
5222,3930,Middle East,Persian Gulf,Bahrain,"Single Pipe Marker, Fasht Al Adhom",26.04,50.894,9.0,1990s,3,1,"Uwate, K.R., J. Almeshkhas and H. Almahgani, 1997
Field observation of coral bleaching in Bahrain in 1996. Directorate of Fisheries, Ministry of Works and Agricalture, State of Bahrain.",BHR
3142,2029,Australia,Australia and Papua New Guinea,Papua New Guinea,Motupore,-9.6,147.216666666667,,1990s,1,1,ReefBase,PNG
5205,3928,Middle East,Persian Gulf,Bahrain,"Al Dar Island, Fasht Al Adhom",26.127,50.679,9.0,1990s,3,1,"Uwate, K.R., J. Almeshkhas and H. Almahgani, 1997
Field observation of coral bleaching in Bahrain in 1996. Directorate of Fisheries, Ministry of Works and Agricalture, State of Bahrain.",BHR
5220,525,Middle East,Persian Gulf,Bahrain,N Jabari,26.0,50.5,,1990s,2,1,GCRMN 2000. Chapter 3,BHR
5226,776,Middle East,Persian Gulf,Iran,Hindurabi Islands,26.7044,53.6169,,1990s,2,1,GCRMN 2000. Chapter 3,IRN
5207,3931,Middle East,Persian Gulf,Bahrain,"Concrete Marker, Fasht Al Adhom",25.988,50.884,9.0,1990s,3,1,"Uwate, K.R., J. Almeshkhas and H. Almahgani, 1997
Field observation of coral bleaching in Bahrain in 1996. Directorate of Fisheries, Ministry of Works and Agricalture, State of Bahrain.",BHR
5250,2544,Middle East,Persian Gulf,United Arab Emirates,Jebel Ali to Ras Hasyan,25.133,54.91,6.0,1990s,3,1,"Riegel, B. 2002.  Effects of the 1996 and 1998 positive sea-surface temperature anomalies on corals, coral diseases and fish in the Arabian Gulf (Dubai, UAE). Marine Biology 140: 29-40",ARE
5208,3929,Middle East,Persian Gulf,Bahrain,"Double Pipe Marker, Fasht Al Adhom",26.076,50.767,9.0,1990s,3,1,"Uwate, K.R., J. Almeshkhas and H. Almahgani, 1997
Field observation of coral bleaching in Bahrain in 1996. Directorate of Fisheries, Ministry of Works and Agricalture, State of Bahrain.",BHR
2925,2541,Asia,Southeast Asia,Thailand,Phuket,8.0,98.33,2.0,1990s,3,1,"Dunne, R.P. & B.E. Brown. 2001. The influence of solar radiation on bleaching of shallow water reef corals in the Andaman Sea, 1993-1998.  Coral Reef 20:201-210",THA
2063,665,Americas,Southern Tropical America,Panama,Uva Island,7.8,-81.75,9.0,1990s,3,1,"Glynn, P.W., Mate, J.L., Baker, A.C. & Calderson, M.O. 2001. Coral Bleaching & mortality in Panama and Ecuador during the 1997-98 ENSO event: Spatial/Temporal patterns and comparisons with the 1982-83 event. Bull Mar Sci. 69(1):79-124",PAN
2916,2039,Asia,Southeast Asia,Thailand,Lipe Island ( Ko Lee Pee ),6.5,99.3,,1990s,-1,1,ReefBase,THA
1915,695,Americas,Southern Tropical America,Costa Rica,Golfo Dulce,9.9,-84.9,,1990s,3,1,"Jimenez, C., Cortes, J., Leon, A. and Ruiz, E. 2001. Coral Bleaching  and Mortality associated with the 1997-1998 El Nino in an upwelling environemnt in the Eastern Pacific (Gulf of Papagayo, Costa Rica). Bulletin of Marine Science. 69(1):151-169",CRI
415,753,Americas,Mesoamerica,Honduras,Cayos Cochinos,15.9667,-86.45,,1990s,2,1,GCRMN 2000. Chapter 16,HND
2061,2109,Americas,Southern Tropical America,Panama,Uva Island,7.81666666666667,-81.7666666666667,9.0,1990s,2,1,ReefBase,PAN
3416,447,Australia,Australia and Papua New Guinea,Torres Strait & Great Barrier Reef,Christmas Island,-10.5014,105.5092,12.0,1990s,2,1,http://darwin.bio.uci.edu/~sustain/Enso97/1297/06DecChristmas.html posted 12/6/97,AUS_GBR
391,754,Americas,Mesoamerica,Belize,Snake Keys,16.1833,-88.5667,,1990s,1,1,GCRMN 2000. Chapter 16,BLZ
2898,2089,Asia,Southeast Asia,Thailand,Adang Island ( Ko Adang ),6.53333333333333,99.2833333333333,,1990s,-1,1,ReefBase,THA
2064,379,Americas,Southern Tropical America,Panama,"Uva Island, in Gulf of Chiriqui",7.7902,-81.761,9.0,1990s,2,1,Coral Listserver,PAN
2052,697,Americas,Southern Tropical America,Panama,Silva de Afuera Island,8.1,-81.9,,1990s,3,1,"Glynn, P.W., Mate, J.L., Baker, A.C. & Calderson, M.O. 2001. Coral Bleaching & mortality in Panama and Ecuador during the 1997-98 ENSO event: Spatial/Temporal patterns and comparisons with the 1982-83 event. Bull Mar Sci. 69(1):79-125",PAN
2917,243,Asia,Southeast Asia,Thailand,Lipe Island ( Ko Lipe ),6.5004,99.3022,,1990s,1,1,ReefBase,THA
2926,2542,Asia,Southeast Asia,Thailand,Phuket,8.0,98.33,4.0,1990s,3,1,"Dunne, R.P. & B.E. Brown. 2001. The influence of solar radiation on bleaching of shallow water reef corals in the Andaman Sea, 1993-1998.  Coral Reef 20:201-210",THA
1914,694,Americas,Southern Tropical America,Costa Rica,Culebra Bay,10.48,-85.87,,1990s,2,1,"Jimenez, C., Cortes, J., Leon, A. and Ruiz, E. 2001. Coral Bleaching  and Mortality associated with the 1997-1998 El Nino in an upwelling environemnt in the Eastern Pacific (Gulf of Papagayo, Costa Rica). Bulletin of Marine Science. 69(1):151-169",CRI
2924,2540,Asia,Southeast Asia,Thailand,Phuket,8.0,98.33,5.0,1990s,1,1,"Dunne, R.P. & B.E. Brown. 2001. The influence of solar radiation on bleaching of shallow water reef corals in the Andaman Sea, 1993-1998.  Coral Reef 20:201-210",THA
954,729,Americas,Mesoamerica,Mexico,Pichilingue Bay,24.3,-110.3,,1990s,2,1,"Bonilla, H.R. 2001. Effects of the 1997-1998 El Nino Southern Oscillation on coral communities of the Gulf of California, Mexico. Bulletin of Marine Science. 69(1):251-266",MEX
2036,661,Americas,Southern Tropical America,Panama,Montuosa Island,7.48,-82.25,,1990s,3,1,"Glynn, P.W., Mate, J.L., Baker, A.C. & Calderson, M.O. 2001. Coral Bleaching & mortality in Panama and Ecuador during the 1997-98 ENSO event: Spatial/Temporal patterns and comparisons with the 1982-83 event. Bull Mar Sci. 69(1):79-122",PAN
1988,664,Americas,Southern Tropical America,Panama,Jicarita Islands,7.3,-81.8,9.0,1990s,3,1,"Glynn, P.W., Mate, J.L., Baker, A.C. & Calderson, M.O. 2001. Coral Bleaching & mortality in Panama and Ecuador during the 1997-98 ENSO event: Spatial/Temporal patterns and comparisons with the 1982-83 event. Bull Mar Sci. 69(1):79-123",PAN
1008,735,Americas,Mesoamerica,Mexico,Punta Pericos,23.9,-109.8,,1990s,2,1,"Bonilla, H.R. 2001. Effects of the 1997-1998 El Nino Southern Oscillation on coral communities of the Gulf of California, Mexico. Bulletin of Marine Science. 69(1):251-266",MEX
1918,693,Americas,Southern Tropical America,Costa Rica,Murcielagos Islands,10.85,-85.95,,1990s,2,1,"Jimenez, C., Cortes, J., Leon, A. and Ruiz, E. 2001. Coral Bleaching  and Mortality associated with the 1997-1998 El Nino in an upwelling environemnt in the Eastern Pacific (Gulf of Papagayo, Costa Rica). Bulletin of Marine Science. 69(1):151-169",CRI
1425,2252,Americas,Northern Caribbean,Bermuda,Bermuda,32.3,-64.75,,1990s,1,1,ReefBase,BMU
2897,242,Asia,Southeast Asia,Thailand,Adang Island ( Ko Adang ),6.5303,99.2767,,1990s,1,1,ReefBase,THA
453,736,Americas,Mesoamerica,Mexico,Cabo Pulmo,23.4,-109.4,,1990s,2,1,"Bonilla, H.R. 2001. Effects of the 1997-1998 El Nino Southern Oscillation on coral communities of the Gulf of California, Mexico. Bulletin of Marine Science. 69(1):251-266",MEX
511,205,Americas,Mesoamerica,Mexico,Jalisco,21.4709,-105.2144,10.0,1990s,2,1,"Wilkinson, Clive",MEX
1868,375,Americas,Southern Tropical America,Colombia,Gorgona Island,2.97,-78.17,9.0,1990s,1,1,Coral Listserver,COL
2142,16,Americas,U.S. Caribbean,Florida (USA),Florida Keys,24.5557,-81.5112,9.0,1990s,3,1,NOAA database,USA_FLO
681,206,Americas,Mesoamerica,Mexico,Nayarit,21.0491,-105.2573,10.0,1990s,3,1,"Wilkinson, Clive",MEX
2813,240,Asia,Southeast Asia,Philippines,Arthur's Rock,13.6884,120.8681,,1990s,2,1,ReefBase,PHL
1213,739,Americas,Mesoamerica,Mexico,San Carlos Bay,27.9,-111.0,,1990s,2,1,"Bonilla, H.R. 2001. Effects of the 1997-1998 El Nino Southern Oscillation on coral communities of the Gulf of California, Mexico. Bulletin of Marine Science. 69(1):251-266",MEX
1864,202,Americas,Southern Tropical America,Colombia,Colombia Pacific Coast,4.0111,-77.6335,9.0,1990s,2,1,"Wilkinson, Clive",COL
1215,727,Americas,Mesoamerica,Mexico,San Jose Island,24.9,-110.6,,1990s,2,1,"Bonilla, H.R. 2001. Effects of the 1997-1998 El Nino Southern Oscillation on coral communities of the Gulf of California, Mexico. Bulletin of Marine Science. 69(1):251-266",MEX
459,738,Americas,Mesoamerica,Mexico,Concepcion Bay,26.9,-111.9,,1990s,2,1,"Bonilla, H.R. 2001. Effects of the 1997-1998 El Nino Southern Oscillation on coral communities of the Gulf of California, Mexico. Bulletin of Marine Science. 69(1):251-266",MEX
510,204,Americas,Mesoamerica,Mexico,Gulf of California,24.781,-110.4833,10.0,1990s,2,1,"Wilkinson, Clive",MEX
2814,2137,Asia,Southeast Asia,Philippines,Arthur's Rock,13.7166666666667,120.87,,1990s,-1,1,ReefBase,PHL
1214,728,Americas,Mesoamerica,Mexico,San Gabriel Bay,24.5,-110.4,,1990s,2,1,"Bonilla, H.R. 2001. Effects of the 1997-1998 El Nino Southern Oscillation on coral communities of the Gulf of California, Mexico. Bulletin of Marine Science. 69(1):251-266",MEX
680,15,Americas,Mesoamerica,Mexico,mouth into Gulf of California,23.4303,-109.3849,8.0,1990s,2,1,NOAA database,MEX
1484,380,Americas,Northern Caribbean,Cayman Islands,West side Grand Cayman,19.3558,-81.3997,11.0,1990s,0,0,Coral Listserver,CYM
1155,207,Americas,Mesoamerica,Mexico,Revillagigedos,18.843,-111.0776,10.0,1990s,1,1,"Wilkinson, Clive",MEX
456,737,Americas,Mesoamerica,Mexico,Chileno Bay,23.0,-109.7,9.0,1990s,2,1,"Bonilla, H.R. 2001. Effects of the 1997-1998 El Nino Southern Oscillation on coral communities of the Gulf of California, Mexico. Bulletin of Marine Science. 69(1):251-266",MEX
2141,14,Americas,U.S. Caribbean,Florida (USA),Florida Keys,24.5342,-81.5811,8.0,1990s,2,1,NOAA database,USA_FLO
534,740,Americas,Mesoamerica,Mexico,La Paz Bay,24.1,-110.4,,1990s,2,1,"Bonilla, H.R. 2001. Effects of the 1997-1998 El Nino Southern Oscillation on coral communities of the Gulf of California, Mexico. Bulletin of Marine Science. 69(1):251-266",MEX
1856,2071,Americas,Southern Tropical America,Colombia,Colombia,7.0,-74.0,5.0,1990s,1,1,ReefBase,COL
2143,2362,Americas,U.S. Caribbean,Florida (USA),Florida Keys,24.5,-81.05,8.0,1990s,2,1,ReefBase,USA_FLO
1154,2300,Americas,Mesoamerica,Mexico,Revilla Gigedo Islands,18.0,-111.5,8.0,1990s,1,1,ReefBase,MEX
4415,1191,Australia,Australia and Papua New Guinea,Torres Strait & Great Barrier Reef,No Name,-21.17931,152.51641,4.0,1990s,0,0,Berkelmans & Oliver (1999),AUS_GBR
4179,1492,Australia,Australia and Papua New Guinea,Torres Strait & Great Barrier Reef,"Nathan Rf, NW side",-17.52563,146.52415,4.0,1990s,2,1,Berkelmans & Oliver (1999),AUS_GBR
5394,511,Pacific,Micronesia,Palau,Blue Corner,7.13,134.23,,1990s,3,1,GCRMN 2000. Chapter 1,PLW
5395,720,Pacific,Micronesia,Palau,Cemetary Island,7.5,134.5,,1990s,3,1,GCRMN 2000. Chapter 1,PLW
5392,2114,Pacific,Micronesia,Palau,Big Drop Off,7.10533333333333,134.254166666667,,1990s,3,1,ReefBase,PLW
5391,2113,Pacific,Micronesia,Palau,Arakabesan ( Ngerekebesang ),7.35,134.453333333333,,1990s,2,1,ReefBase,PLW
4174,951,Australia,Australia and Papua New Guinea,Torres Strait & Great Barrier Reef,Myrmidon Rf,-18.2683,147.38618,4.0,1990s,1,1,Berkelmans & Oliver (1999),AUS_GBR
4107,1574,Australia,Australia and Papua New Guinea,Torres Strait & Great Barrier Reef,Martin Rf,-19.48444,148.82421,4.0,1990s,0,0,Berkelmans & Oliver (1999),AUS_GBR
4416,1192,Australia,Australia and Papua New Guinea,Torres Strait & Great Barrier Reef,No Name,-21.20492,152.52169,4.0,1990s,0,0,Berkelmans & Oliver (1999),AUS_GBR
4414,1190,Australia,Australia and Papua New Guinea,Torres Strait & Great Barrier Reef,No Name,-21.14025,152.50253,4.0,1990s,0,0,Berkelmans & Oliver (1999),AUS_GBR
388,420,Americas,Mesoamerica,Belize,Scipio Reef,16.47,-88.28,9.0,1990s,3,1,"Wilkinson, Clive. http://coral.aoml.noaa.gov/bulls/clive-bleaching.html",BLZ
4105,1864,Australia,Australia and Papua New Guinea,Torres Strait & Great Barrier Reef,Marble Is,-21.98168,150.19077,4.0,1990s,3,1,Berkelmans & Oliver (1999),AUS_GBR
5393,603,Pacific,Micronesia,Palau,Big Drop Off,7.1089,134.2569,,1990s,3,1,"Bruno, J.F., Siddon, C.E., Witman, J.D., Colin, P.L. and Toscano, M.A. 2001. El Nino related coral bleaching in Palau, Western Caroline Islands. Coral Reefs. 20:127-136",PLW
389,143,Americas,Mesoamerica,Belize,shallow patch reefs,16.6155,-88.0669,10.0,1990s,2,1,NOAA database,BLZ
394,421,Americas,Mesoamerica,Belize,South Water reef,16.8,-88.08,9.0,1990s,3,1,"Wilkinson, Clive. http://coral.aoml.noaa.gov/bulls/clive-bleaching.html",BLZ
4124,1887,Australia,Australia and Papua New Guinea,Torres Strait & Great Barrier Reef,Miall Is,-23.1512,150.90439,4.0,1990s,3,1,Berkelmans & Oliver (1999),AUS_GBR
4422,1217,Australia,Australia and Papua New Guinea,Torres Strait & Great Barrier Reef,No Name,-22.32612,152.72336,4.0,1990s,0,0,Berkelmans & Oliver (1999),AUS_GBR
4421,1216,Australia,Australia and Papua New Guinea,Torres Strait & Great Barrier Reef,No Name,-22.30081,152.73197,4.0,1990s,0,0,Berkelmans & Oliver (1999),AUS_GBR
4178,1491,Australia,Australia and Papua New Guinea,Torres Strait & Great Barrier Reef,"Nathan Rf, east side",-17.52563,146.52415,4.0,1990s,1,1,Berkelmans & Oliver (1999),AUS_GBR
418,221,Americas,Mesoamerica,Honduras,Honduras,15.9316,-86.4011,9.0,1990s,2,1,"Wilkinson, Clive",HND
419,2211,Americas,Mesoamerica,Honduras,Roatan Island,16.3333333333333,-86.4666666666667,9.0,1990s,2,1,ReefBase,HND
4413,1189,Australia,Australia and Papua New Guinea,Torres Strait & Great Barrier Reef,No Name,-21.41713,152.48976,4.0,1990s,0,0,Berkelmans & Oliver (1999),AUS_GBR
4173,1520,Australia,Australia and Papua New Guinea,Torres Strait & Great Barrier Reef,Myrmidon Rf,-18.2683,147.38618,4.0,1990s,1,1,Berkelmans & Oliver (1999),AUS_GBR
4111,2015,Australia,Australia and Papua New Guinea,Torres Strait & Great Barrier Reef,Maryport Islet,-20.75833,149.275,4.0,1990s,3,1,Berkelmans & Oliver (1999),AUS_GBR
4110,1436,Australia,Australia and Papua New Guinea,Torres Strait & Great Barrier Reef,Marx Rf,-15.19974,145.61517,4.0,1990s,0,0,Berkelmans & Oliver (1999),AUS_GBR
6112,2208,Pacific,Southwest Pacific,Vanuatu,Loltong Bay,-15.6333333333333,168.116666666667,3.0,1990s,-1,1,ReefBase,VUT
4085,826,Australia,Australia and Papua New Guinea,Torres Strait & Great Barrier Reef,MacGillivray Rf,-14.65211,145.48962,4.0,1990s,0,0,Berkelmans & Oliver (1999),AUS_GBR
4106,1406,Australia,Australia and Papua New Guinea,Torres Strait & Great Barrier Reef,Marble Is,-21.98168,150.19077,4.0,1990s,3,1,Berkelmans & Oliver (1999),AUS_GBR
4129,1626,Australia,Australia and Papua New Guinea,Torres Strait & Great Barrier Reef,Mid Molle Is,-20.25,148.825,4.0,1990s,0,0,Berkelmans & Oliver (1999),AUS_GBR
4113,1718,Australia,Australia and Papua New Guinea,Torres Strait & Great Barrier Reef,Masthead Is,-23.53667,151.73662,4.0,1990s,3,1,Berkelmans & Oliver (1999),AUS_GBR
5232,779,Middle East,Persian Gulf,Oman,Barr Al Hickman,20.4,58.7,,1990s,1,1,GCRMN 2000. Chapter 3,OMN
4056,2003,Australia,Australia and Papua New Guinea,Torres Strait & Great Barrier Reef,Lloyd Is,-12.75384,143.39521,4.0,1990s,1,1,Berkelmans & Oliver (1999),AUS_GBR
4156,1389,Australia,Australia and Papua New Guinea,Torres Strait & Great Barrier Reef,Minster Is,-21.44167,149.83333,4.0,1990s,3,1,Berkelmans & Oliver (1999),AUS_GBR
4159,1989,Australia,Australia and Papua New Guinea,Torres Strait & Great Barrier Reef,Moodey Rf,-12.09748,143.26393,4.0,1990s,1,1,Berkelmans & Oliver (1999),AUS_GBR
4120,1112,Australia,Australia and Papua New Guinea,Torres Strait & Great Barrier Reef,McIntire Rf,-20.71865,150.46874,4.0,1990s,0,0,Berkelmans & Oliver (1999),AUS_GBR
5401,440,Pacific,Micronesia,Palau,"Ngchesar fringing reef, E Babeldaob",7.4325,134.61,,1990s,2,1,ICRI paper,PLW
5400,439,Pacific,Micronesia,Palau,"Ngchesar barrier reef, E Babeldaob",7.4325,134.72,,1990s,3,1,ICRI paper,PLW
5399,523,Pacific,Micronesia,Palau,"Iwayama Bay, Rock Islands",7.3261,134.5006,,1990s,3,1,GCRMN 2000. Chapter 1,PLW
5363,352,Pacific,Micronesia,Guam,Guam Double Reef,13.6,144.83,,1990s,2,1,Reef Check Data 2057,GUM
420,505,Americas,Mesoamerica,Mexico,Akumal,20.4167,-87.3,9.0,1990s,3,1,http://www.osdpd.noaa.gov/PSB/EPS/SST/climohot_1999.html,MEX
4103,1949,Australia,Australia and Papua New Guinea,Torres Strait & Great Barrier Reef,Mantis Rf,-12.27202,143.92324,4.0,1990s,0,0,Berkelmans & Oliver (1999),AUS_GBR
4102,1602,Australia,Australia and Papua New Guinea,Torres Strait & Great Barrier Reef,Mansell Is,-20.47167,149.13333,4.0,1990s,0,0,Berkelmans & Oliver (1999),AUS_GBR
4410,1199,Australia,Australia and Papua New Guinea,Torres Strait & Great Barrier Reef,No Name,-21.57729,152.53401,4.0,1990s,0,0,Berkelmans & Oliver (1999),AUS_GBR
4101,1033,Australia,Australia and Papua New Guinea,Torres Strait & Great Barrier Reef,Mansell Is,-20.47167,149.13333,4.0,1990s,0,0,Berkelmans & Oliver (1999),AUS_GBR
4177,922,Australia,Australia and Papua New Guinea,Torres Strait & Great Barrier Reef,"Nathan Rf, east side",-17.52563,146.52415,4.0,1990s,1,1,Berkelmans & Oliver (1999),AUS_GBR
379,423,Americas,Mesoamerica,Belize,Rum Point,16.503,-88.3828,9.0,1990s,3,1,"Wilkinson, Clive. http://coral.aoml.noaa.gov/bulls/clive-bleaching.html",BLZ
4099,866,Australia,Australia and Papua New Guinea,Torres Strait & Great Barrier Reef,Makay Rf,-15.14204,145.57507,4.0,1990s,0,0,Berkelmans & Oliver (1999),AUS_GBR
4098,1435,Australia,Australia and Papua New Guinea,Torres Strait & Great Barrier Reef,Makay Rf,-15.14204,145.57507,4.0,1990s,0,0,Berkelmans & Oliver (1999),AUS_GBR
378,123,Americas,Mesoamerica,Belize,Ranguana Pass,16.21,-88.18,9.0,1990s,3,1,Coral Listserver,BLZ
5366,284,Pacific,Micronesia,Guam,Western Shoals,13.4755,144.6912,,1990s,0,0,Reef Check Data 2064,GUM
377,2214,Americas,Mesoamerica,Belize,Ranguana Cay,16.3333333333333,-88.1666666666667,9.0,1990s,3,1,ReefBase,BLZ
4114,1228,Australia,Australia and Papua New Guinea,Torres Strait & Great Barrier Reef,Masthead Is,-23.53667,151.73662,4.0,1990s,3,1,Berkelmans & Oliver (1999),AUS_GBR
5398,445,Pacific,Micronesia,Palau,"Helen Reef, SW Palau",2.9025,131.8,,1990s,3,1,ICRI paper,PLW
5362,337,Pacific,Micronesia,Guam,Facpi Point,13.339,144.6338,,1990s,2,1,Reef Check Data 2060,GUM
5360,2025,Pacific,Micronesia,Federated States of Micronesia,Yap,9.51666666666667,138.166666666667,9.0,1990s,1,1,ReefBase,FSM
5358,172,Pacific,Micronesia,Federated States of Micronesia,Federated States of Micronesia,8.6072,150.3893,9.0,1990s,2,1,"Wilkinson, Clive",FSM
4417,1193,Australia,Australia and Papua New Guinea,Torres Strait & Great Barrier Reef,No Name,-21.35888,152.51912,4.0,1990s,0,0,Berkelmans & Oliver (1999),AUS_GBR
4418,1194,Australia,Australia and Papua New Guinea,Torres Strait & Great Barrier Reef,No Name,-21.38415,152.5317,4.0,1990s,0,0,Berkelmans & Oliver (1999),AUS_GBR
4419,1195,Australia,Australia and Papua New Guinea,Torres Strait & Great Barrier Reef,No Name,-21.39944,152.50936,4.0,1990s,0,0,Berkelmans & Oliver (1999),AUS_GBR
4420,1196,Australia,Australia and Papua New Guinea,Torres Strait & Great Barrier Reef,No Name,-21.46541,152.51973,4.0,1990s,0,0,Berkelmans & Oliver (1999),AUS_GBR
5233,777,Middle East,Persian Gulf,Oman,Dhofar,16.8,54.0,5.0,1990s,3,1,GCRMN 2000. Chapter 3,OMN
4242,1700,Australia,Australia and Papua New Guinea,Torres Strait & Great Barrier Reef,No Name,-21.04382,151.55729,4.0,1990s,0,0,Berkelmans & Oliver (1999),AUS_GBR
3992,1743,Australia,Australia and Papua New Guinea,Torres Strait & Great Barrier Reef,King Rf,-17.77467,146.1221,4.0,1990s,3,1,Berkelmans & Oliver (1999),AUS_GBR
4403,1156,Australia,Australia and Papua New Guinea,Torres Strait & Great Barrier Reef,No Name,-21.18551,151.82363,4.0,1990s,0,0,Berkelmans & Oliver (1999),AUS_GBR
4002,1238,Australia,Australia and Papua New Guinea,Torres Strait & Great Barrier Reef,Lady Elliott Is,-24.10993,152.71557,4.0,1990s,2,1,Berkelmans & Oliver (1999),AUS_GBR
4213,1568,Australia,Australia and Papua New Guinea,Torres Strait & Great Barrier Reef,No Name,-19.3605,148.63598,4.0,1990s,2,1,Berkelmans & Oliver (1999),AUS_GBR
4004,1727,Australia,Australia and Papua New Guinea,Torres Strait & Great Barrier Reef,"Lady Musgrave Is, lagoon",-23.90538,152.40823,4.0,1990s,2,1,Berkelmans & Oliver (1999),AUS_GBR
4003,1237,Australia,Australia and Papua New Guinea,Torres Strait & Great Barrier Reef,"Lady Musgrave Is, lagoon",-23.90538,152.40823,4.0,1990s,2,1,Berkelmans & Oliver (1999),AUS_GBR
4001,1728,Australia,Australia and Papua New Guinea,Torres Strait & Great Barrier Reef,Lady Elliott Is,-24.10993,152.71557,4.0,1990s,2,1,Berkelmans & Oliver (1999),AUS_GBR
5105,1917,Australia,Australia and Papua New Guinea,Torres Strait & Great Barrier Reef,Unnamed,-16.0333,145.708,4.0,1990s,1,1,Berkelmans & Oliver (1999),AUS_GBR
5104,1547,Australia,Australia and Papua New Guinea,Torres Strait & Great Barrier Reef,Unmarked shoals SE of Camp is,-19.875,147.93333,4.0,1990s,3,1,Berkelmans & Oliver (1999),AUS_GBR
5103,978,Australia,Australia and Papua New Guinea,Torres Strait & Great Barrier Reef,Unmarked shoals SE of Camp is,-19.875,147.93333,4.0,1990s,3,1,Berkelmans & Oliver (1999),AUS_GBR
5102,979,Australia,Australia and Papua New Guinea,Torres Strait & Great Barrier Reef,Unmarked patch reef in Queens Bay,-19.98333,148.28333,4.0,1990s,3,1,Berkelmans & Oliver (1999),AUS_GBR
5101,1548,Australia,Australia and Papua New Guinea,Torres Strait & Great Barrier Reef,Unmarked patch reef in Queens Bay,-19.98333,148.28333,4.0,1990s,3,1,Berkelmans & Oliver (1999),AUS_GBR
4005,1726,Australia,Australia and Papua New Guinea,Torres Strait & Great Barrier Reef,"Lady Musgrave Is, outside",-23.90538,152.40823,4.0,1990s,0,0,Berkelmans & Oliver (1999),AUS_GBR
297,2270,Americas,Eastern Caribbean,Virgin Islands (British),Virgin Gorda,18.4833333333333,-64.4,,1990s,2,1,ReefBase,VBG
4433,1851,Australia,Australia and Papua New Guinea,Torres Strait & Great Barrier Reef,Noel Is,-21.49167,149.88333,4.0,1990s,3,1,Berkelmans & Oliver (1999),AUS_GBR
3982,948,Australia,Australia and Papua New Guinea,Torres Strait & Great Barrier Reef,Kelso Rf,-18.43364,146.99065,4.0,1990s,1,1,Berkelmans & Oliver (1999),AUS_GBR
5099,1915,Australia,Australia and Papua New Guinea,Torres Strait & Great Barrier Reef,Undine Rf,-16.125,145.667,4.0,1990s,0,0,Berkelmans & Oliver (1999),AUS_GBR
3999,909,Australia,Australia and Papua New Guinea,Torres Strait & Great Barrier Reef,Korea Rf,-16.55881,145.55028,4.0,1990s,3,1,Berkelmans & Oliver (1999),AUS_GBR
4243,1701,Australia,Australia and Papua New Guinea,Torres Strait & Great Barrier Reef,No Name,-21.12607,151.07956,4.0,1990s,0,0,Berkelmans & Oliver (1999),AUS_GBR
6037,389,Pacific,Southwest Pacific,Solomon Islands,Russell Islands,-8.9979,159.2518,11.0,1990s,0,0,Coral Listserver,SLB
4109,867,Australia,Australia and Papua New Guinea,Torres Strait & Great Barrier Reef,Marx Rf,-15.19974,145.61517,4.0,1990s,0,0,Berkelmans & Oliver (1999),AUS_GBR
4108,1005,Australia,Australia and Papua New Guinea,Torres Strait & Great Barrier Reef,Martin Rf,-19.48444,148.82421,4.0,1990s,0,0,Berkelmans & Oliver (1999),AUS_GBR
3998,1478,Australia,Australia and Papua New Guinea,Torres Strait & Great Barrier Reef,Korea Rf,-16.55881,145.55028,4.0,1990s,3,1,Berkelmans & Oliver (1999),AUS_GBR
4434,1393,Australia,Australia and Papua New Guinea,Torres Strait & Great Barrier Reef,Noel Is,-21.49167,149.88333,4.0,1990s,3,1,Berkelmans & Oliver (1999),AUS_GBR
3996,1846,Australia,Australia and Papua New Guinea,Torres Strait & Great Barrier Reef,Knight Is,-21.45,149.70833,4.0,1990s,3,1,Berkelmans & Oliver (1999),AUS_GBR
4214,1538,Australia,Australia and Papua New Guinea,Torres Strait & Great Barrier Reef,No Name,-18.85719,147.89186,4.0,1990s,1,1,Berkelmans & Oliver (1999),AUS_GBR
3995,1388,Australia,Australia and Papua New Guinea,Torres Strait & Great Barrier Reef,Knight Is,-21.45,149.70833,4.0,1990s,3,1,Berkelmans & Oliver (1999),AUS_GBR
4436,1991,Australia,Australia and Papua New Guinea,Torres Strait & Great Barrier Reef,Nomad Rf,-12.14374,143.37115,4.0,1990s,1,1,Berkelmans & Oliver (1999),AUS_GBR
3993,1253,Australia,Australia and Papua New Guinea,Torres Strait & Great Barrier Reef,King Rf,-17.77467,146.1221,4.0,1990s,3,1,Berkelmans & Oliver (1999),AUS_GBR
5397,442,Pacific,Micronesia,Palau,Fringing reefs S Malakal,7.3325,134.46,,1990s,0,0,ICRI paper,PLW
339,2237,Americas,Mesoamerica,Belize,Gallows Point,17.4833333333333,-88.05,9.0,1990s,2,1,ReefBase,BLZ
4447,852,Australia,Australia and Papua New Guinea,Torres Strait & Great Barrier Reef,North Direction Is,-14.74254,145.51029,4.0,1990s,0,0,Berkelmans & Oliver (1999),AUS_GBR
4215,1506,Australia,Australia and Papua New Guinea,Torres Strait & Great Barrier Reef,No Name,-17.99723,146.7745,4.0,1990s,1,1,Berkelmans & Oliver (1999),AUS_GBR
4220,1510,Australia,Australia and Papua New Guinea,Torres Strait & Great Barrier Reef,No Name,-18.12376,146.76226,4.0,1990s,2,1,Berkelmans & Oliver (1999),AUS_GBR
3986,1265,Australia,Australia and Papua New Guinea,Torres Strait & Great Barrier Reef,Kennedy Shoal,-18.08367,146.44723,4.0,1990s,3,1,Berkelmans & Oliver (1999),AUS_GBR
3978,1527,Australia,Australia and Papua New Guinea,Torres Strait & Great Barrier Reef,Keeper Rf,-18.74904,147.27022,4.0,1990s,1,1,Berkelmans & Oliver (1999),AUS_GBR
287,1820,Americas,Eastern Caribbean,Trinidad and Tobago,Tobago,11.2666666666667,-60.65,,1990s,-1,1,ReefBase,TTO
3977,958,Australia,Australia and Papua New Guinea,Torres Strait & Great Barrier Reef,Keeper Rf,-18.74904,147.27022,4.0,1990s,1,1,Berkelmans & Oliver (1999),AUS_GBR
6135,2223,Pacific,Southwest Pacific,Vanuatu,Port Stanley,-16.1,167.433333333333,,1990s,-1,1,ReefBase,VUT
3976,623,Australia,Australia and Papua New Guinea,Torres Strait & Great Barrier Reef,Keeper Reef,-18.7333,147.2667,4.0,1990s,2,1,"Berkelmans, R. and Oliver, J.K. 1999. Large-scale bleaching of corals on the Great Barrier Reef. Coral Reefs. 18:55-60",AUS_GBR
4441,1738,Australia,Australia and Papua New Guinea,Torres Strait & Great Barrier Reef,"North Barnard, Hutchison Is",-17.675,146.167,4.0,1990s,3,1,Berkelmans & Oliver (1999),AUS_GBR
3975,1992,Australia,Australia and Papua New Guinea,Torres Strait & Great Barrier Reef,Kay Rf,-12.23474,143.28493,4.0,1990s,1,1,Berkelmans & Oliver (1999),AUS_GBR
4036,949,Australia,Australia and Papua New Guinea,Torres Strait & Great Barrier Reef,Little Kelso,-18.47047,146.99263,4.0,1990s,0,0,Berkelmans & Oliver (1999),AUS_GBR
4444,1737,Australia,Australia and Papua New Guinea,Torres Strait & Great Barrier Reef,"North Barnard, Kent Is",-17.676,146.175,4.0,1990s,3,1,Berkelmans & Oliver (1999),AUS_GBR
3985,1755,Australia,Australia and Papua New Guinea,Torres Strait & Great Barrier Reef,Kennedy Shoal,-18.08367,146.44723,4.0,1990s,3,1,Berkelmans & Oliver (1999),AUS_GBR
3983,1517,Australia,Australia and Papua New Guinea,Torres Strait & Great Barrier Reef,Kelso Rf,-18.43364,146.99065,4.0,1990s,1,1,Berkelmans & Oliver (1999),AUS_GBR
4216,1507,Australia,Australia and Papua New Guinea,Torres Strait & Great Barrier Reef,No Name,-18.03984,146.78698,4.0,1990s,2,1,Berkelmans & Oliver (1999),AUS_GBR
3988,1805,Australia,Australia and Papua New Guinea,Torres Strait & Great Barrier Reef,Keswick Is,-20.91165,149.39031,4.0,1990s,1,1,Berkelmans & Oliver (1999),AUS_GBR
279,2135,Americas,Eastern Caribbean,St. Lucia,Soufriere,13.8333333333333,-61.0666666666667,,1990s,3,1,ReefBase,LCA
276,283,Americas,Eastern Caribbean,Netherlands Antilles,Twin Peaks,12.2732,-68.4218,,1990s,0,0,Reef Check Data 2030,ANT
4221,1511,Australia,Australia and Papua New Guinea,Torres Strait & Great Barrier Reef,No Name,-18.13696,146.97108,4.0,1990s,1,1,Berkelmans & Oliver (1999),AUS_GBR
3969,996,Australia,Australia and Papua New Guinea,Torres Strait & Great Barrier Reef,Kangaroo Rf,-19.25777,148.62773,4.0,1990s,1,1,Berkelmans & Oliver (1999),AUS_GBR
4222,1513,Australia,Australia and Papua New Guinea,Torres Strait & Great Barrier Reef,No Name,-18.32435,146.7442,4.0,1990s,0,0,Berkelmans & Oliver (1999),AUS_GBR
4223,1504,Australia,Australia and Papua New Guinea,Torres Strait & Great Barrier Reef,No Name,-17.88724,146.58755,4.0,1990s,3,1,Berkelmans & Oliver (1999),AUS_GBR
3989,1302,Australia,Australia and Papua New Guinea,Torres Strait & Great Barrier Reef,Keswick Is,-20.91165,149.39031,4.0,1990s,1,1,Berkelmans & Oliver (1999),AUS_GBR
4217,1500,Australia,Australia and Papua New Guinea,Torres Strait & Great Barrier Reef,No Name,-17.74226,146.50177,4.0,1990s,0,0,Berkelmans & Oliver (1999),AUS_GBR
4218,1536,Australia,Australia and Papua New Guinea,Torres Strait & Great Barrier Reef,No Name,-18.77666,147.87389,4.0,1990s,1,1,Berkelmans & Oliver (1999),AUS_GBR
4219,1534,Australia,Australia and Papua New Guinea,Torres Strait & Great Barrier Reef,No Name,-18.73011,147.84347,4.0,1990s,1,1,Berkelmans & Oliver (1999),AUS_GBR
3973,619,Australia,Australia and Papua New Guinea,Torres Strait & Great Barrier Reef,Kay Reef,-12.2167,143.2833,4.0,1990s,2,1,"Berkelmans, R. and Oliver, J.K. 1999. Large-scale bleaching of corals on the Great Barrier Reef. Coral Reefs. 18:55-60",AUS_GBR
3972,1566,Australia,Australia and Papua New Guinea,Torres Strait & Great Barrier Reef,Kangaroo Rf,-19.26278,148.54971,4.0,1990s,0,0,Berkelmans & Oliver (1999),AUS_GBR
3971,1565,Australia,Australia and Papua New Guinea,Torres Strait & Great Barrier Reef,Kangaroo Rf,-19.25777,148.62773,4.0,1990s,1,1,Berkelmans & Oliver (1999),AUS_GBR
3970,997,Australia,Australia and Papua New Guinea,Torres Strait & Great Barrier Reef,Kangaroo Rf,-19.26278,148.54971,4.0,1990s,0,0,Berkelmans & Oliver (1999),AUS_GBR
4443,1247,Australia,Australia and Papua New Guinea,Torres Strait & Great Barrier Reef,"North Barnard, Kent Is",-17.676,146.175,4.0,1990s,3,1,Berkelmans & Oliver (1999),AUS_GBR
5236,382,Middle East,Persian Gulf,Oman,Mirbat Peninsula,16.94,54.81,5.0,1990s,3,1,Coral Listserver,OMN
5239,2303,Middle East,Persian Gulf,Oman,Oman,20.4666666666667,58.45,,1990s,3,1,ReefBase,OMN
4192,1680,Australia,Australia and Papua New Guinea,Torres Strait & Great Barrier Reef,No Name,-20.702,150.18411,4.0,1990s,0,0,Berkelmans & Oliver (1999),AUS_GBR
